[
  {
    "INDEX": 1,
    "COMMUNE": "ALLASSAC",
    "NOM": "Laval",
    "TYPE": "STEP Boues activées - aération prolongée",
    "LAT": 45.24733886600478,
    "LONG": 1.462119442901563,
    "ETAT": "ES",
    "VOLUME": "",
    "CAPACITE(eH)": 6200,
    "DEBIT(m3/j)": 930,
    "DBO(kg/j)": 372,
    "DATE MISE EN SERVICE": 1974,
    "DOCUMENTATION": "Allassac - Fiche STEP de  Laval.pdf",
    "LIEN1": "",
    "TYPE1": "",
    "LIEN2": "",
    "TYPE2": "",
    "LIEN3": "",
    "TYPE3": ""
  },
  {
    "INDEX": 2,
    "COMMUNE": "ALLASSAC",
    "NOM": "St Laurent(sur la commune de Varetz - le rioulet)",
    "TYPE": "STEP Lits à Macrophytes",
    "LAT": 45.221100962815946,
    "LONG": 1.4323224907326406,
    "ETAT": "ES",
    "VOLUME": "",
    "CAPACITE(eH)": 350,
    "DEBIT(m3/j)": 52.5,
    "DBO(kg/j)": 21,
    "DATE MISE EN SERVICE": 2005,
    "DOCUMENTATION": "Allassac - Fiche STEP de St Laurent le Rioulet.pdf",
    "LIEN1": "",
    "TYPE1": "",
    "LIEN2": "",
    "TYPE2": "",
    "LIEN3": "",
    "TYPE3": ""
  },
  {
    "INDEX": 3,
    "COMMUNE": "ALLASSAC",
    "NOM": "Les Carrières",
    "TYPE": "PR",
    "LAT": 45.257487571760976,
    "LONG": 1.4705291490036119,
    "ETAT": "ES",
    "VOLUME": "",
    "CAPACITE(eH)": "",
    "DEBIT(m3/j)": "NC",
    "DBO(kg/j)": "",
    "DATE MISE EN SERVICE": "",
    "DOCUMENTATION": "Allassac - PR des Carrières.pdf",
    "LIEN1": "",
    "TYPE1": "",
    "LIEN2": "",
    "TYPE2": "",
    "LIEN3": "",
    "TYPE3": ""
  },
  {
    "INDEX": 4,
    "COMMUNE": "ALLASSAC",
    "NOM": "Le Bois du Roi",
    "TYPE": "PR",
    "LAT": 45.26531480001208,
    "LONG": 1.4652234706775997,
    "ETAT": "ES",
    "VOLUME": "",
    "CAPACITE(eH)": "",
    "DEBIT(m3/j)": "NC",
    "DBO(kg/j)": "",
    "DATE MISE EN SERVICE": "",
    "DOCUMENTATION": "Allassac - PR du Bois du Roi.pdf",
    "LIEN1": "",
    "TYPE1": "",
    "LIEN2": "",
    "TYPE2": "",
    "LIEN3": "",
    "TYPE3": ""
  },
  {
    "INDEX": 5,
    "COMMUNE": "ALLASSAC",
    "NOM": "Z.A des Rivières",
    "TYPE": "PR",
    "LAT": 45.253706001688506,
    "LONG": 1.4589828347351288,
    "ETAT": "ES",
    "VOLUME": "",
    "CAPACITE(eH)": "",
    "DEBIT(m3/j)": "NC",
    "DBO(kg/j)": "",
    "DATE MISE EN SERVICE": "",
    "DOCUMENTATION": "Allassac - PR de la ZA des Rivière.pdf",
    "LIEN1": "",
    "TYPE1": "",
    "LIEN2": "",
    "TYPE2": "",
    "LIEN3": "",
    "TYPE3": ""
  },
  {
    "INDEX": 6,
    "COMMUNE": "ALLASSAC",
    "NOM": "Garavet",
    "TYPE": "PR",
    "LAT": 45.248708731783516,
    "LONG": 1.4555465840038955,
    "ETAT": "ES",
    "VOLUME": "",
    "CAPACITE(eH)": "",
    "DEBIT(m3/j)": "NC",
    "DBO(kg/j)": "",
    "DATE MISE EN SERVICE": "",
    "DOCUMENTATION": "Allassac - PR de Garavet.pdf",
    "LIEN1": "",
    "TYPE1": "",
    "LIEN2": "",
    "TYPE2": "",
    "LIEN3": "",
    "TYPE3": ""
  },
  {
    "INDEX": 7,
    "COMMUNE": "ALLASSAC",
    "NOM": "Les Pissotes",
    "TYPE": "PR",
    "LAT": 45.26202246360013,
    "LONG": 1.4701465786271675,
    "ETAT": "ES",
    "VOLUME": "",
    "CAPACITE(eH)": "",
    "DEBIT(m3/j)": "NC",
    "DBO(kg/j)": "",
    "DATE MISE EN SERVICE": "",
    "DOCUMENTATION": "Allassac - PR des Pissotes.pdf",
    "LIEN1": "",
    "TYPE1": "",
    "LIEN2": "",
    "TYPE2": "",
    "LIEN3": "",
    "TYPE3": ""
  },
  {
    "INDEX": 8,
    "COMMUNE": "ALLASSAC",
    "NOM": "Le Verdier Bas",
    "TYPE": "PR",
    "LAT": 45.25206867730234,
    "LONG": 1.4993624282375055,
    "ETAT": "ES",
    "VOLUME": "",
    "CAPACITE(eH)": "",
    "DEBIT(m3/j)": "NC",
    "DBO(kg/j)": "",
    "DATE MISE EN SERVICE": "",
    "DOCUMENTATION": "Allassac - PR du Verdier Bas.pdf",
    "LIEN1": "",
    "TYPE1": "",
    "LIEN2": "",
    "TYPE2": "",
    "LIEN3": "",
    "TYPE3": ""
  },
  {
    "INDEX": 9,
    "COMMUNE": "ALLASSAC",
    "NOM": "Station d'eau potable de Laujour",
    "TYPE": "Usine",
    "LAT": 45.29472399832708,
    "LONG": 1.475909070838082,
    "ETAT": "ES",
    "VOLUME": "",
    "CAPACITE(eH)": "",
    "DEBIT(m3/j)": "",
    "DBO(kg/j)": "",
    "DATE MISE EN SERVICE": "",
    "DOCUMENTATION": "",
    "LIEN1": 19,
    "TYPE1": "EP",
    "LIEN2": 27,
    "TYPE2": "EP",
    "LIEN3": "",
    "TYPE3": ""
  },
  {
    "INDEX": 10,
    "COMMUNE": "ALLASSAC",
    "NOM": "Station d'eau potable des Trois Villages",
    "TYPE": "Usine",
    "LAT": 45.256529978187594,
    "LONG": 1.4994779197702182,
    "ETAT": "ES",
    "VOLUME": "",
    "CAPACITE(eH)": "",
    "DEBIT(m3/j)": "",
    "DBO(kg/j)": "",
    "DATE MISE EN SERVICE": "",
    "DOCUMENTATION": "",
    "LIEN1": 26,
    "TYPE1": "EP",
    "LIEN2": "",
    "TYPE2": "",
    "LIEN3": "",
    "TYPE3": ""
  },
  {
    "INDEX": 11,
    "COMMUNE": "ALLASSAC",
    "NOM": "Captage de la Blondinerie Nord N°1",
    "TYPE": "Ressource",
    "LAT": 45.27691643116119,
    "LONG": 1.4844446658312542,
    "ETAT": "ES",
    "VOLUME": "",
    "CAPACITE(eH)": "",
    "DEBIT(m3/j)": "",
    "DBO(kg/j)": "",
    "DATE MISE EN SERVICE": "",
    "DOCUMENTATION": "",
    "LIEN1": 17,
    "TYPE1": "EB",
    "LIEN2": "",
    "TYPE2": "",
    "LIEN3": "",
    "TYPE3": ""
  },
  {
    "INDEX": 12,
    "COMMUNE": "ALLASSAC",
    "NOM": "Captage de la Blondinerie Nord N°2",
    "TYPE": "Ressource",
    "LAT": 45.275788544654844,
    "LONG": 1.484756564925608,
    "ETAT": "ES",
    "VOLUME": "",
    "CAPACITE(eH)": "",
    "DEBIT(m3/j)": "",
    "DBO(kg/j)": "",
    "DATE MISE EN SERVICE": "",
    "DOCUMENTATION": "",
    "LIEN1": 17,
    "TYPE1": "EB",
    "LIEN2": "",
    "TYPE2": "",
    "LIEN3": "",
    "TYPE3": ""
  },
  {
    "INDEX": 13,
    "COMMUNE": "ALLASSAC",
    "NOM": "Captage de Laugerie inférieur",
    "TYPE": "Ressource",
    "LAT": 45.284153700104554,
    "LONG": 1.4911019202830347,
    "ETAT": "ES",
    "VOLUME": "",
    "CAPACITE(eH)": "",
    "DEBIT(m3/j)": "",
    "DBO(kg/j)": "",
    "DATE MISE EN SERVICE": "",
    "DOCUMENTATION": "",
    "LIEN1": 17,
    "TYPE1": "EB",
    "LIEN2": "",
    "TYPE2": "",
    "LIEN3": "",
    "TYPE3": ""
  },
  {
    "INDEX": 14,
    "COMMUNE": "ALLASSAC",
    "NOM": "Captage de Laujour inférieur",
    "TYPE": "Ressource",
    "LAT": 45.29512869891102,
    "LONG": 1.4774887738401434,
    "ETAT": "ES",
    "VOLUME": "",
    "CAPACITE(eH)": "",
    "DEBIT(m3/j)": "",
    "DBO(kg/j)": "",
    "DATE MISE EN SERVICE": "",
    "DOCUMENTATION": "",
    "LIEN1": 9,
    "TYPE1": "EB",
    "LIEN2": "",
    "TYPE2": "",
    "LIEN3": "",
    "TYPE3": ""
  },
  {
    "INDEX": 15,
    "COMMUNE": "ALLASSAC",
    "NOM": "Captage de Laujour supérieur",
    "TYPE": "Ressource",
    "LAT": 45.29425841845788,
    "LONG": 1.4766123893687393,
    "ETAT": "ES",
    "VOLUME": "",
    "CAPACITE(eH)": "",
    "DEBIT(m3/j)": "",
    "DBO(kg/j)": "",
    "DATE MISE EN SERVICE": "",
    "DOCUMENTATION": "",
    "LIEN1": 9,
    "TYPE1": "EB",
    "LIEN2": "",
    "TYPE2": "",
    "LIEN3": "",
    "TYPE3": ""
  },
  {
    "INDEX": 16,
    "COMMUNE": "ALLASSAC",
    "NOM": "Captages de la Blondinerie Nord N°3 à 7",
    "TYPE": "Ressource",
    "LAT": 45.273908491078416,
    "LONG": 1.4871846141563296,
    "ETAT": "ES",
    "VOLUME": "",
    "CAPACITE(eH)": "",
    "DEBIT(m3/j)": "",
    "DBO(kg/j)": "",
    "DATE MISE EN SERVICE": "",
    "DOCUMENTATION": "",
    "LIEN1": 17,
    "TYPE1": "EB",
    "LIEN2": "",
    "TYPE2": "",
    "LIEN3": "",
    "TYPE3": ""
  },
  {
    "INDEX": 17,
    "COMMUNE": "ALLASSAC",
    "NOM": "Regard collecteur du Cheyral",
    "TYPE": "Ressource",
    "LAT": 45.275791214004315,
    "LONG": 1.5029095645178558,
    "ETAT": "ES",
    "VOLUME": "",
    "CAPACITE(eH)": "",
    "DEBIT(m3/j)": "",
    "DBO(kg/j)": "",
    "DATE MISE EN SERVICE": "",
    "DOCUMENTATION": "",
    "LIEN1": 10,
    "TYPE1": "EB",
    "LIEN2": "",
    "TYPE2": "",
    "LIEN3": "",
    "TYPE3": ""
  },
  {
    "INDEX": 18,
    "COMMUNE": "ALLASSAC",
    "NOM": "Réservoir de la Cote Haut",
    "TYPE": "Réservoir + reprise",
    "LAT": 45.26219810401136,
    "LONG": 1.480916502311807,
    "ETAT": "ES",
    "VOLUME": 500,
    "CAPACITE(eH)": "",
    "DEBIT(m3/j)": "",
    "DBO(kg/j)": "",
    "DATE MISE EN SERVICE": "",
    "DOCUMENTATION": "",
    "LIEN1": 22,
    "TYPE1": "EP",
    "LIEN2": "",
    "TYPE2": "",
    "LIEN3": "",
    "TYPE3": ""
  },
  {
    "INDEX": 19,
    "COMMUNE": "ALLASSAC",
    "NOM": "Réservoir de la Pleuge",
    "TYPE": "Réservoir + reprise",
    "LAT": 45.26937265491964,
    "LONG": 1.4739834595445382,
    "ETAT": "ES",
    "VOLUME": 300,
    "CAPACITE(eH)": "",
    "DEBIT(m3/j)": "",
    "DBO(kg/j)": "",
    "DATE MISE EN SERVICE": "",
    "DOCUMENTATION": "",
    "LIEN1": "",
    "TYPE1": "",
    "LIEN2": "",
    "TYPE2": "",
    "LIEN3": "",
    "TYPE3": ""
  },
  {
    "INDEX": 20,
    "COMMUNE": "ALLASSAC",
    "NOM": "Réservoir de Brochat",
    "TYPE": "Réservoir",
    "LAT": 45.230853438562704,
    "LONG": 1.484774512312485,
    "ETAT": "ES",
    "VOLUME": 300,
    "CAPACITE(eH)": "",
    "DEBIT(m3/j)": "",
    "DBO(kg/j)": "",
    "DATE MISE EN SERVICE": "",
    "DOCUMENTATION": "",
    "LIEN1": 296,
    "TYPE1": "EP",
    "LIEN2": 298,
    "TYPE2": "EP",
    "LIEN3": 125,
    "TYPE3": "EP"
  },
  {
    "INDEX": 21,
    "COMMUNE": "ALLASSAC",
    "NOM": "Réservoir de la Cote Bas",
    "TYPE": "Réservoir",
    "LAT": 45.26205081375701,
    "LONG": 1.4805901017163734,
    "ETAT": "D",
    "VOLUME": 80,
    "CAPACITE(eH)": "",
    "DEBIT(m3/j)": "",
    "DBO(kg/j)": "",
    "DATE MISE EN SERVICE": "",
    "DOCUMENTATION": "",
    "LIEN1": 23,
    "TYPE1": "EP",
    "LIEN2": "",
    "TYPE2": "",
    "LIEN3": "",
    "TYPE3": ""
  },
  {
    "INDEX": 22,
    "COMMUNE": "ALLASSAC",
    "NOM": "Réservoir de la Roche",
    "TYPE": "Réservoir",
    "LAT": 45.28135043943182,
    "LONG": 1.4836759991076447,
    "ETAT": "ES",
    "VOLUME": 150,
    "CAPACITE(eH)": "",
    "DEBIT(m3/j)": "",
    "DBO(kg/j)": "",
    "DATE MISE EN SERVICE": "",
    "DOCUMENTATION": "",
    "LIEN1": "",
    "TYPE1": "",
    "LIEN2": "",
    "TYPE2": "",
    "LIEN3": "",
    "TYPE3": ""
  },
  {
    "INDEX": 23,
    "COMMUNE": "ALLASSAC",
    "NOM": "Réservoir de l'Hospice N°1",
    "TYPE": "Réservoir",
    "LAT": 45.26012275688924,
    "LONG": 1.4785013882570228,
    "ETAT": "ES",
    "VOLUME": 100,
    "CAPACITE(eH)": "",
    "DEBIT(m3/j)": "",
    "DBO(kg/j)": "",
    "DATE MISE EN SERVICE": "",
    "DOCUMENTATION": "",
    "LIEN1": 24,
    "TYPE1": "EP",
    "LIEN2": "",
    "TYPE2": "",
    "LIEN3": "",
    "TYPE3": ""
  },
  {
    "INDEX": 24,
    "COMMUNE": "ALLASSAC",
    "NOM": "Réservoir de l'Hospice N°2",
    "TYPE": "Réservoir",
    "LAT": 45.25999540702844,
    "LONG": 1.4786550237886669,
    "ETAT": "ES",
    "VOLUME": 200,
    "CAPACITE(eH)": "",
    "DEBIT(m3/j)": "",
    "DBO(kg/j)": "",
    "DATE MISE EN SERVICE": "",
    "DOCUMENTATION": "",
    "LIEN1": 521,
    "TYPE1": "EP",
    "LIEN2": "",
    "TYPE2": "",
    "LIEN3": "",
    "TYPE3": ""
  },
  {
    "INDEX": 25,
    "COMMUNE": "ALLASSAC",
    "NOM": "Réservoir des Mosredons",
    "TYPE": "Réservoir",
    "LAT": 45.25880708487534,
    "LONG": 1.487724331952415,
    "ETAT": "ES",
    "VOLUME": 100,
    "CAPACITE(eH)": "",
    "DEBIT(m3/j)": "",
    "DBO(kg/j)": "",
    "DATE MISE EN SERVICE": "",
    "DOCUMENTATION": "",
    "LIEN1": "",
    "TYPE1": "",
    "LIEN2": "",
    "TYPE2": "",
    "LIEN3": "",
    "TYPE3": ""
  },
  {
    "INDEX": 26,
    "COMMUNE": "ALLASSAC",
    "NOM": "Réservoir des Trois Villages",
    "TYPE": "Réservoir",
    "LAT": 45.2564555333263,
    "LONG": 1.4995379104578856,
    "ETAT": "ES",
    "VOLUME": 75,
    "CAPACITE(eH)": "",
    "DEBIT(m3/j)": "",
    "DBO(kg/j)": "",
    "DATE MISE EN SERVICE": "",
    "DOCUMENTATION": "",
    "LIEN1": 25,
    "TYPE1": "EP",
    "LIEN2": 21,
    "TYPE2": "EP",
    "LIEN3": "",
    "TYPE3": ""
  },
  {
    "INDEX": 27,
    "COMMUNE": "ALLASSAC",
    "NOM": "Réservoir du Saillant d'Allassac",
    "TYPE": "Réservoir",
    "LAT": 45.279371532008774,
    "LONG": 1.464342522560417,
    "ETAT": "ES",
    "VOLUME": 200,
    "CAPACITE(eH)": "",
    "DEBIT(m3/j)": "",
    "DBO(kg/j)": "",
    "DATE MISE EN SERVICE": "",
    "DOCUMENTATION": "",
    "LIEN1": "",
    "TYPE1": "",
    "LIEN2": "",
    "TYPE2": "",
    "LIEN3": "",
    "TYPE3": ""
  },
  {
    "INDEX": 28,
    "COMMUNE": "ALLASSAC",
    "NOM": "Réservoir des Pins N°1",
    "TYPE": "Réservoir",
    "LAT": 45.26829088255997,
    "LONG": 1.4293783152263086,
    "ETAT": "ES",
    "VOLUME": 1000,
    "CAPACITE(eH)": "",
    "DEBIT(m3/j)": "",
    "DBO(kg/j)": "",
    "DATE MISE EN SERVICE": "",
    "DOCUMENTATION": "",
    "LIEN1": 260,
    "TYPE1": "EP",
    "LIEN2": 272,
    "TYPE2": "EP",
    "LIEN3": 237,
    "TYPE3": "EP"
  },
  {
    "INDEX": 29,
    "COMMUNE": "ALLASSAC",
    "NOM": "Réservoir des Pins N°2",
    "TYPE": "Réservoir",
    "LAT": 45.26805831709735,
    "LONG": 1.429392228804828,
    "ETAT": "ES",
    "VOLUME": 1000,
    "CAPACITE(eH)": "",
    "DEBIT(m3/j)": "",
    "DBO(kg/j)": "",
    "DATE MISE EN SERVICE": "",
    "DOCUMENTATION": "",
    "LIEN1": 311,
    "TYPE1": "EP",
    "LIEN2": 336,
    "TYPE2": "EP",
    "LIEN3": 197,
    "TYPE3": "EP"
  },
  {
    "INDEX": 30,
    "COMMUNE": "AUBAZINE",
    "NOM": "Usine de production d'eau potable de Bordebrune",
    "TYPE": "Usine",
    "LAT": 45.17941109463481,
    "LONG": 1.7040516488742443,
    "ETAT": "ES",
    "VOLUME": "",
    "CAPACITE(eH)": "",
    "DEBIT(m3/j)": "",
    "DBO(kg/j)": "",
    "DATE MISE EN SERVICE": "",
    "DOCUMENTATION": "",
    "LIEN1": 31,
    "TYPE1": "EP",
    "LIEN2": "",
    "TYPE2": "",
    "LIEN3": "",
    "TYPE3": ""
  },
  {
    "INDEX": 31,
    "COMMUNE": "AUBAZINE",
    "NOM": "Réservoir de Bordebrune",
    "TYPE": "Réservoir sur usine",
    "LAT": 45.17941109567849,
    "LONG": 1.7040516615758765,
    "ETAT": "ES",
    "VOLUME": 1000,
    "CAPACITE(eH)": "",
    "DEBIT(m3/j)": "",
    "DBO(kg/j)": "",
    "DATE MISE EN SERVICE": "",
    "DOCUMENTATION": "",
    "LIEN1": "",
    "TYPE1": "",
    "LIEN2": "",
    "TYPE2": "",
    "LIEN3": "",
    "TYPE3": ""
  },
  {
    "INDEX": 32,
    "COMMUNE": "AUBAZINE",
    "NOM": "Prise d'eau de Chastagnol",
    "TYPE": "Ressource",
    "LAT": 45.17813241964845,
    "LONG": 1.7240068321656432,
    "ETAT": "ES",
    "VOLUME": "",
    "CAPACITE(eH)": "",
    "DEBIT(m3/j)": "",
    "DBO(kg/j)": "",
    "DATE MISE EN SERVICE": "",
    "DOCUMENTATION": "",
    "LIEN1": 30,
    "TYPE1": "EB",
    "LIEN2": "",
    "TYPE2": "",
    "LIEN3": "",
    "TYPE3": ""
  },
  {
    "INDEX": 33,
    "COMMUNE": "AYEN",
    "NOM": "Bourg",
    "TYPE": "STEP Lit Bactérien",
    "LAT": 45.2464124815073,
    "LONG": 1.3234437593511823,
    "ETAT": "ES",
    "VOLUME": "",
    "CAPACITE(eH)": 400,
    "DEBIT(m3/j)": 60,
    "DBO(kg/j)": 24,
    "DATE MISE EN SERVICE": 1983,
    "DOCUMENTATION": "Ayen - Fiche STEP du Bourg Bas.pdf",
    "LIEN1": "",
    "TYPE1": "",
    "LIEN2": "",
    "TYPE2": "",
    "LIEN3": "",
    "TYPE3": ""
  },
  {
    "INDEX": 34,
    "COMMUNE": "AYEN",
    "NOM": "Le Soulet",
    "TYPE": "STEP Filtre à sable",
    "LAT": 45.279033101044135,
    "LONG": 1.3383434304808246,
    "ETAT": "ES",
    "VOLUME": "",
    "CAPACITE(eH)": 80,
    "DEBIT(m3/j)": 12,
    "DBO(kg/j)": 4.8,
    "DATE MISE EN SERVICE": 2001,
    "DOCUMENTATION": "Ayen - Fiche STEP du Soulet.pdf",
    "LIEN1": "",
    "TYPE1": "",
    "LIEN2": "",
    "TYPE2": "",
    "LIEN3": "",
    "TYPE3": ""
  },
  {
    "INDEX": 35,
    "COMMUNE": "AYEN",
    "NOM": "VVF",
    "TYPE": "PR",
    "LAT": 45.23694179912271,
    "LONG": 1.3428031165574084,
    "ETAT": "ES",
    "VOLUME": "",
    "CAPACITE(eH)": "",
    "DEBIT(m3/j)": "NC",
    "DBO(kg/j)": "",
    "DATE MISE EN SERVICE": "",
    "DOCUMENTATION": "Ayen - PR du VVF.pdf",
    "LIEN1": "",
    "TYPE1": "",
    "LIEN2": "",
    "TYPE2": "",
    "LIEN3": "",
    "TYPE3": ""
  },
  {
    "INDEX": 36,
    "COMMUNE": "AYEN",
    "NOM": "Réservoir de Laval",
    "TYPE": "Réservoir",
    "LAT": 45.27544530917659,
    "LONG": 1.335063008852439,
    "ETAT": "ES",
    "VOLUME": 100,
    "CAPACITE(eH)": "",
    "DEBIT(m3/j)": "",
    "DBO(kg/j)": "",
    "DATE MISE EN SERVICE": "",
    "DOCUMENTATION": "",
    "LIEN1": "",
    "TYPE1": "",
    "LIEN2": "",
    "TYPE2": "",
    "LIEN3": "",
    "TYPE3": ""
  },
  {
    "INDEX": 37,
    "COMMUNE": "AYEN",
    "NOM": "Reservoir du Temple",
    "TYPE": "Réservoir",
    "LAT": 45.23728199625558,
    "LONG": 1.3356276013760742,
    "ETAT": "ES",
    "VOLUME": 500,
    "CAPACITE(eH)": "",
    "DEBIT(m3/j)": "",
    "DBO(kg/j)": "",
    "DATE MISE EN SERVICE": "",
    "DOCUMENTATION": "",
    "LIEN1": "",
    "TYPE1": "",
    "LIEN2": "",
    "TYPE2": "",
    "LIEN3": "",
    "TYPE3": ""
  },
  {
    "INDEX": 38,
    "COMMUNE": "AYEN",
    "NOM": "Surpresseur de Val d'Ayen",
    "TYPE": "Reprise seule",
    "LAT": 45.23756856850556,
    "LONG": 1.337100149581941,
    "ETAT": "ES",
    "VOLUME": "",
    "CAPACITE(eH)": "",
    "DEBIT(m3/j)": "",
    "DBO(kg/j)": "",
    "DATE MISE EN SERVICE": "",
    "DOCUMENTATION": "",
    "LIEN1": "",
    "TYPE1": "",
    "LIEN2": "",
    "TYPE2": "",
    "LIEN3": "",
    "TYPE3": ""
  },
  {
    "INDEX": 39,
    "COMMUNE": "BRIGNAC-LA-PLAINE",
    "NOM": "Bourg",
    "TYPE": "STEP Lagune",
    "LAT": 45.1856775317278,
    "LONG": 1.3445149694750387,
    "ETAT": "ES",
    "VOLUME": "",
    "CAPACITE(eH)": 300,
    "DEBIT(m3/j)": 45,
    "DBO(kg/j)": 18,
    "DATE MISE EN SERVICE": 1989,
    "DOCUMENTATION": "Brignac-la-Plaine - Fiche STEP du Bourg.pdf",
    "LIEN1": "",
    "TYPE1": "",
    "LIEN2": "",
    "TYPE2": "",
    "LIEN3": "",
    "TYPE3": ""
  },
  {
    "INDEX": 40,
    "COMMUNE": "BRIGNAC-LA-PLAINE",
    "NOM": "Le Bourg",
    "TYPE": "PR",
    "LAT": 45.18747800311624,
    "LONG": 1.337112835570102,
    "ETAT": "ES",
    "VOLUME": "",
    "CAPACITE(eH)": "",
    "DEBIT(m3/j)": "NC",
    "DBO(kg/j)": "",
    "DATE MISE EN SERVICE": "",
    "DOCUMENTATION": "Brignac-la-Plaine - PR du Bourg.pdf",
    "LIEN1": "",
    "TYPE1": "",
    "LIEN2": "",
    "TYPE2": "",
    "LIEN3": "",
    "TYPE3": ""
  },
  {
    "INDEX": 41,
    "COMMUNE": "BRIGNAC-LA-PLAINE",
    "NOM": "Lacombe (Brignac)",
    "TYPE": "PR",
    "LAT": 45.15215689111136,
    "LONG": 1.3623500377185755,
    "ETAT": "ES",
    "VOLUME": "",
    "CAPACITE(eH)": "",
    "DEBIT(m3/j)": "NC",
    "DBO(kg/j)": "",
    "DATE MISE EN SERVICE": "",
    "DOCUMENTATION": "Brignac-la-Plaine - PR de Lacombe.pdf",
    "LIEN1": "",
    "TYPE1": "",
    "LIEN2": "",
    "TYPE2": "",
    "LIEN3": "",
    "TYPE3": ""
  },
  {
    "INDEX": 42,
    "COMMUNE": "BRIGNAC-LA-PLAINE",
    "NOM": "Réservoir de Belmont",
    "TYPE": "Réservoir",
    "LAT": 45.19463553050497,
    "LONG": 1.3485250751724809,
    "ETAT": "ES",
    "VOLUME": 300,
    "CAPACITE(eH)": "",
    "DEBIT(m3/j)": "",
    "DBO(kg/j)": "",
    "DATE MISE EN SERVICE": "",
    "DOCUMENTATION": "",
    "LIEN1": "",
    "TYPE1": "",
    "LIEN2": "",
    "TYPE2": "",
    "LIEN3": "",
    "TYPE3": ""
  },
  {
    "INDEX": 43,
    "COMMUNE": "BRIGNAC-LA-PLAINE",
    "NOM": "Réservoir du Bourg de Brignac",
    "TYPE": "Réservoir",
    "LAT": 45.19055840560769,
    "LONG": 1.346276151158481,
    "ETAT": "ES",
    "VOLUME": 200,
    "CAPACITE(eH)": "",
    "DEBIT(m3/j)": "",
    "DBO(kg/j)": "",
    "DATE MISE EN SERVICE": "",
    "DOCUMENTATION": "",
    "LIEN1": "",
    "TYPE1": "",
    "LIEN2": "",
    "TYPE2": "",
    "LIEN3": "",
    "TYPE3": ""
  },
  {
    "INDEX": 44,
    "COMMUNE": "BRIGNAC-LA-PLAINE",
    "NOM": "Réservoir du Petit Sourniac",
    "TYPE": "Réservoir",
    "LAT": 45.17620864209439,
    "LONG": 1.286862184759093,
    "ETAT": "ES",
    "VOLUME": 300,
    "CAPACITE(eH)": "",
    "DEBIT(m3/j)": "",
    "DBO(kg/j)": "",
    "DATE MISE EN SERVICE": "",
    "DOCUMENTATION": "",
    "LIEN1": "",
    "TYPE1": "",
    "LIEN2": "",
    "TYPE2": "",
    "LIEN3": "",
    "TYPE3": ""
  },
  {
    "INDEX": 45,
    "COMMUNE": "BRIVE",
    "NOM": "Usine de production d'eau potable de Saint-Germain",
    "TYPE": "Usine",
    "LAT": 45.16968366967192,
    "LONG": 1.5401506875821553,
    "ETAT": "ES",
    "VOLUME": "",
    "CAPACITE(eH)": "",
    "DEBIT(m3/j)": "",
    "DBO(kg/j)": "",
    "DATE MISE EN SERVICE": "",
    "DOCUMENTATION": "",
    "LIEN1": 46,
    "TYPE1": "EP",
    "LIEN2": 47,
    "TYPE2": "EP",
    "LIEN3": "",
    "TYPE3": ""
  },
  {
    "INDEX": 46,
    "COMMUNE": "BRIVE",
    "NOM": "Réservoir de Saint-Germain N°1",
    "TYPE": "Réservoir sur usine",
    "LAT": 45.17010586948894,
    "LONG": 1.5409605092128384,
    "ETAT": "ES",
    "VOLUME": 3500,
    "CAPACITE(eH)": "",
    "DEBIT(m3/j)": "",
    "DBO(kg/j)": "",
    "DATE MISE EN SERVICE": "",
    "DOCUMENTATION": "",
    "LIEN1": 294,
    "TYPE1": "EP",
    "LIEN2": "",
    "TYPE2": "",
    "LIEN3": "",
    "TYPE3": ""
  },
  {
    "INDEX": 47,
    "COMMUNE": "BRIVE",
    "NOM": "Réservoir de Saint-Germain N°2",
    "TYPE": "Réservoir sur usine",
    "LAT": 45.1701065005242,
    "LONG": 1.5413409181671207,
    "ETAT": "ES",
    "VOLUME": 3500,
    "CAPACITE(eH)": "",
    "DEBIT(m3/j)": "",
    "DBO(kg/j)": "",
    "DATE MISE EN SERVICE": "",
    "DOCUMENTATION": "",
    "LIEN1": "",
    "TYPE1": "",
    "LIEN2": "",
    "TYPE2": "",
    "LIEN3": "",
    "TYPE3": ""
  },
  {
    "INDEX": 48,
    "COMMUNE": "BRIVE",
    "NOM": "Réservoir du Calvaire N°1",
    "TYPE": "Réservoir + reprise",
    "LAT": 45.14552924818006,
    "LONG": 1.5350438292707231,
    "ETAT": "ES",
    "VOLUME": 1000,
    "CAPACITE(eH)": "",
    "DEBIT(m3/j)": "",
    "DBO(kg/j)": "",
    "DATE MISE EN SERVICE": "",
    "DOCUMENTATION": "",
    "LIEN1": 53,
    "TYPE1": "EP",
    "LIEN2": 54,
    "TYPE2": "EP",
    "LIEN3": "",
    "TYPE3": ""
  },
  {
    "INDEX": 49,
    "COMMUNE": "BRIVE",
    "NOM": "Station de reprise de Lacan",
    "TYPE": "Réservoir + reprise",
    "LAT": 45.169702712786396,
    "LONG": 1.5503482023545758,
    "ETAT": "ES",
    "VOLUME": 50,
    "CAPACITE(eH)": "",
    "DEBIT(m3/j)": "",
    "DBO(kg/j)": "",
    "DATE MISE EN SERVICE": "",
    "DOCUMENTATION": "",
    "LIEN1": "",
    "TYPE1": "",
    "LIEN2": "",
    "TYPE2": "",
    "LIEN3": "",
    "TYPE3": ""
  },
  {
    "INDEX": 50,
    "COMMUNE": "BRIVE",
    "NOM": "Station de reprise des Beylies Hautes",
    "TYPE": "Réservoir + reprise",
    "LAT": 45.169448085113245,
    "LONG": 1.5115256204096743,
    "ETAT": "ES",
    "VOLUME": 150,
    "CAPACITE(eH)": "",
    "DEBIT(m3/j)": "",
    "DBO(kg/j)": "",
    "DATE MISE EN SERVICE": "",
    "DOCUMENTATION": "",
    "LIEN1": "",
    "TYPE1": "",
    "LIEN2": "",
    "TYPE2": "",
    "LIEN3": "",
    "TYPE3": ""
  },
  {
    "INDEX": 51,
    "COMMUNE": "BRIVE",
    "NOM": "Réservoir du Calvaire N°2",
    "TYPE": "Réservoir + reprise",
    "LAT": 45.14569835615233,
    "LONG": 1.534944189210026,
    "ETAT": "ES",
    "VOLUME": 1000,
    "CAPACITE(eH)": "",
    "DEBIT(m3/j)": "",
    "DBO(kg/j)": "",
    "DATE MISE EN SERVICE": "",
    "DOCUMENTATION": "",
    "LIEN1": 53,
    "TYPE1": "EP",
    "LIEN2": 54,
    "TYPE2": "EP",
    "LIEN3": "",
    "TYPE3": ""
  },
  {
    "INDEX": 52,
    "COMMUNE": "BRIVE",
    "NOM": "Réservoir de Brassaud",
    "TYPE": "Réservoir",
    "LAT": 45.14886056523296,
    "LONG": 1.533920466238853,
    "ETAT": "ES",
    "VOLUME": 1500,
    "CAPACITE(eH)": "",
    "DEBIT(m3/j)": "",
    "DBO(kg/j)": "",
    "DATE MISE EN SERVICE": "",
    "DOCUMENTATION": "",
    "LIEN1": "",
    "TYPE1": "",
    "LIEN2": "",
    "TYPE2": "",
    "LIEN3": "",
    "TYPE3": ""
  },
  {
    "INDEX": 53,
    "COMMUNE": "BRIVE",
    "NOM": "Réservoir de Chèvrecujols N°1",
    "TYPE": "Réservoir",
    "LAT": 45.13506352317497,
    "LONG": 1.536773672393996,
    "ETAT": "ES",
    "VOLUME": 150,
    "CAPACITE(eH)": "",
    "DEBIT(m3/j)": "",
    "DBO(kg/j)": "",
    "DATE MISE EN SERVICE": "",
    "DOCUMENTATION": "",
    "LIEN1": "",
    "TYPE1": "",
    "LIEN2": "",
    "TYPE2": "",
    "LIEN3": "",
    "TYPE3": ""
  },
  {
    "INDEX": 54,
    "COMMUNE": "BRIVE",
    "NOM": "Réservoir de Chèvrecujols N°2",
    "TYPE": "Réservoir",
    "LAT": 45.13482665390959,
    "LONG": 1.5368283335159458,
    "ETAT": "ES",
    "VOLUME": 1000,
    "CAPACITE(eH)": "",
    "DEBIT(m3/j)": "",
    "DBO(kg/j)": "",
    "DATE MISE EN SERVICE": "",
    "DOCUMENTATION": "",
    "LIEN1": "",
    "TYPE1": "",
    "LIEN2": "",
    "TYPE2": "",
    "LIEN3": "",
    "TYPE3": ""
  },
  {
    "INDEX": 55,
    "COMMUNE": "BRIVE",
    "NOM": "Réservoir de Puy Lenty",
    "TYPE": "Réservoir",
    "LAT": 45.12762588037,
    "LONG": 1.506891584947559,
    "ETAT": "ES",
    "VOLUME": 150,
    "CAPACITE(eH)": "",
    "DEBIT(m3/j)": "",
    "DBO(kg/j)": "",
    "DATE MISE EN SERVICE": "",
    "DOCUMENTATION": "",
    "LIEN1": "",
    "TYPE1": "",
    "LIEN2": "",
    "TYPE2": "",
    "LIEN3": "",
    "TYPE3": ""
  },
  {
    "INDEX": 56,
    "COMMUNE": "BRIVE",
    "NOM": "Accélérateur de Saint-Germain",
    "TYPE": "Reprise seule",
    "LAT": 45.167803626955696,
    "LONG": 1.540679075687586,
    "ETAT": "ES",
    "VOLUME": "",
    "CAPACITE(eH)": "",
    "DEBIT(m3/j)": "",
    "DBO(kg/j)": "",
    "DATE MISE EN SERVICE": "",
    "DOCUMENTATION": "",
    "LIEN1": 45,
    "TYPE1": "EB",
    "LIEN2": "",
    "TYPE2": "",
    "LIEN3": "",
    "TYPE3": ""
  },
  {
    "INDEX": 57,
    "COMMUNE": "BRIVE",
    "NOM": "Accélérateur Les Places - Saint-Germain",
    "TYPE": "Reprise seule",
    "LAT": 45.16693641131731,
    "LONG": 1.5241325711214495,
    "ETAT": "ES",
    "VOLUME": "",
    "CAPACITE(eH)": "",
    "DEBIT(m3/j)": "",
    "DBO(kg/j)": "",
    "DATE MISE EN SERVICE": "",
    "DOCUMENTATION": "",
    "LIEN1": 46,
    "TYPE1": "EP",
    "LIEN2": 47,
    "TYPE2": "EP",
    "LIEN3": "",
    "TYPE3": ""
  },
  {
    "INDEX": 58,
    "COMMUNE": "BRIVE",
    "NOM": "Station de reprise de Brassaud",
    "TYPE": "Reprise seule",
    "LAT": 45.148958865087124,
    "LONG": 1.533743927944038,
    "ETAT": "ES",
    "VOLUME": "",
    "CAPACITE(eH)": "",
    "DEBIT(m3/j)": "",
    "DBO(kg/j)": "",
    "DATE MISE EN SERVICE": "",
    "DOCUMENTATION": "",
    "LIEN1": 48,
    "TYPE1": "EP",
    "LIEN2": 51,
    "TYPE2": "EP",
    "LIEN3": "",
    "TYPE3": ""
  },
  {
    "INDEX": 59,
    "COMMUNE": "BRIVE",
    "NOM": "Station de reprise du Teinchurier",
    "TYPE": "Reprise seule",
    "LAT": 45.14675729023647,
    "LONG": 1.482366381890816,
    "ETAT": "ES",
    "VOLUME": "",
    "CAPACITE(eH)": "",
    "DEBIT(m3/j)": "",
    "DBO(kg/j)": "",
    "DATE MISE EN SERVICE": "",
    "DOCUMENTATION": "",
    "LIEN1": 150,
    "TYPE1": "EP",
    "LIEN2": "",
    "TYPE2": "",
    "LIEN3": "",
    "TYPE3": ""
  },
  {
    "INDEX": 60,
    "COMMUNE": "BRIVE",
    "NOM": "JEANNE-D'ARC",
    "TYPE": "EU",
    "LAT": 45.163866327900315,
    "LONG": 1.5295070521656005,
    "ETAT": "ES",
    "VOLUME": "",
    "CAPACITE(eH)": "",
    "DEBIT(m3/j)": "80m3/h",
    "DBO(kg/j)": "",
    "DATE MISE EN SERVICE": "",
    "DOCUMENTATION": "Brive - PR Jeanne D'Arc.pdf",
    "LIEN1": "",
    "TYPE1": "",
    "LIEN2": "",
    "TYPE2": "",
    "LIEN3": "",
    "TYPE3": ""
  },
  {
    "INDEX": 61,
    "COMMUNE": "BRIVE",
    "NOM": "Hauts de la Pourette",
    "TYPE": "EU",
    "LAT": 45.18281451813189,
    "LONG": 1.5265561756866233,
    "ETAT": "ES",
    "VOLUME": "",
    "CAPACITE(eH)": "",
    "DEBIT(m3/j)": "",
    "DBO(kg/j)": "",
    "DATE MISE EN SERVICE": "",
    "DOCUMENTATION": "Brive - PR Les Hauts de la Pourette.pdf",
    "LIEN1": "",
    "TYPE1": "",
    "LIEN2": "",
    "TYPE2": "",
    "LIEN3": "",
    "TYPE3": ""
  },
  {
    "INDEX": 62,
    "COMMUNE": "BRIVE",
    "NOM": "Onze Novembre 11",
    "TYPE": "EU",
    "LAT": 45.16283324179368,
    "LONG": 1.5439610188025656,
    "ETAT": "ES",
    "VOLUME": "",
    "CAPACITE(eH)": "",
    "DEBIT(m3/j)": "125m3/h",
    "DBO(kg/j)": "",
    "DATE MISE EN SERVICE": "",
    "DOCUMENTATION": "Brive - PR Avenue du 11 novembre.pdf",
    "LIEN1": "",
    "TYPE1": "",
    "LIEN2": "",
    "TYPE2": "",
    "LIEN3": "",
    "TYPE3": ""
  },
  {
    "INDEX": 63,
    "COMMUNE": "BRIVE",
    "NOM": "Allée des Tilleuls",
    "TYPE": "EU",
    "LAT": 45.16459543394617,
    "LONG": 1.5337766071772267,
    "ETAT": "ES",
    "VOLUME": "",
    "CAPACITE(eH)": "",
    "DEBIT(m3/j)": "",
    "DBO(kg/j)": "",
    "DATE MISE EN SERVICE": "",
    "DOCUMENTATION": "Brive - PR de l'Allée des Tilleuls.pdf",
    "LIEN1": "",
    "TYPE1": "",
    "LIEN2": "",
    "TYPE2": "",
    "LIEN3": "",
    "TYPE3": ""
  },
  {
    "INDEX": 64,
    "COMMUNE": "BRIVE",
    "NOM": "Cana Est",
    "TYPE": "EP",
    "LAT": 45.158851954220474,
    "LONG": 1.4856390765114582,
    "ETAT": "ES",
    "VOLUME": "",
    "CAPACITE(eH)": "",
    "DEBIT(m3/j)": "",
    "DBO(kg/j)": "",
    "DATE MISE EN SERVICE": "",
    "DOCUMENTATION": "Brive - PR Cana Est.pdf",
    "LIEN1": "",
    "TYPE1": "",
    "LIEN2": "",
    "TYPE2": "",
    "LIEN3": "",
    "TYPE3": ""
  },
  {
    "INDEX": 65,
    "COMMUNE": "BRIVE",
    "NOM": "Cana Ouest",
    "TYPE": "EP",
    "LAT": 45.15868467925173,
    "LONG": 1.4825617818762917,
    "ETAT": "ES",
    "VOLUME": "",
    "CAPACITE(eH)": "",
    "DEBIT(m3/j)": "",
    "DBO(kg/j)": "",
    "DATE MISE EN SERVICE": "",
    "DOCUMENTATION": "Brive - PR Cana Ouest.pdf",
    "LIEN1": "",
    "TYPE1": "",
    "LIEN2": "",
    "TYPE2": "",
    "LIEN3": "",
    "TYPE3": ""
  },
  {
    "INDEX": 66,
    "COMMUNE": "BRIVE",
    "NOM": "P.N de Cosnac",
    "TYPE": "EP",
    "LAT": 45.15603955604011,
    "LONG": 1.5560433457857816,
    "ETAT": "ES",
    "VOLUME": "",
    "CAPACITE(eH)": "",
    "DEBIT(m3/j)": "",
    "DBO(kg/j)": "",
    "DATE MISE EN SERVICE": "",
    "DOCUMENTATION": "Brive - PR de Cosnac.pdf",
    "LIEN1": "",
    "TYPE1": "",
    "LIEN2": "",
    "TYPE2": "",
    "LIEN3": "",
    "TYPE3": ""
  },
  {
    "INDEX": 67,
    "COMMUNE": "BRIVE",
    "NOM": "Rey Haut",
    "TYPE": "EP",
    "LAT": 45.16304094871506,
    "LONG": 1.4962926425877414,
    "ETAT": "ES",
    "VOLUME": "",
    "CAPACITE(eH)": "",
    "DEBIT(m3/j)": "",
    "DBO(kg/j)": "",
    "DATE MISE EN SERVICE": "",
    "DOCUMENTATION": "Brive - PR Le Rey Haut.pdf",
    "LIEN1": "",
    "TYPE1": "",
    "LIEN2": "",
    "TYPE2": "",
    "LIEN3": "",
    "TYPE3": ""
  },
  {
    "INDEX": 68,
    "COMMUNE": "BRIVE",
    "NOM": "P.E.B.O dit Mazaud",
    "TYPE": "EU",
    "LAT": 45.14317533691379,
    "LONG": 1.4804328739624877,
    "ETAT": "ES",
    "VOLUME": "",
    "CAPACITE(eH)": "",
    "DEBIT(m3/j)": "",
    "DBO(kg/j)": "",
    "DATE MISE EN SERVICE": "",
    "DOCUMENTATION": "Brive - PR Mazaud.pdf",
    "LIEN1": "",
    "TYPE1": "",
    "LIEN2": "",
    "TYPE2": "",
    "LIEN3": "",
    "TYPE3": ""
  },
  {
    "INDEX": 69,
    "COMMUNE": "BRIVE",
    "NOM": "P.E.B.O dit H. Lecat",
    "TYPE": "EP",
    "LAT": 45.142523795479285,
    "LONG": 1.4765509894001234,
    "ETAT": "ES",
    "VOLUME": "",
    "CAPACITE(eH)": "",
    "DEBIT(m3/j)": "",
    "DBO(kg/j)": "",
    "DATE MISE EN SERVICE": "",
    "DOCUMENTATION": "Brive - PR Henri LECAT.pdf",
    "LIEN1": "",
    "TYPE1": "",
    "LIEN2": "",
    "TYPE2": "",
    "LIEN3": "",
    "TYPE3": ""
  },
  {
    "INDEX": 70,
    "COMMUNE": "BRIVE",
    "NOM": "MARQUISIE",
    "TYPE": "EP",
    "LAT": 45.159878379137815,
    "LONG": 1.4765635951190037,
    "ETAT": "ES",
    "VOLUME": "",
    "CAPACITE(eH)": "",
    "DEBIT(m3/j)": "400m3/h",
    "DBO(kg/j)": "",
    "DATE MISE EN SERVICE": "",
    "DOCUMENTATION": "Brive - PR de la Marquisie.pdf",
    "LIEN1": "",
    "TYPE1": "",
    "LIEN2": "",
    "TYPE2": "",
    "LIEN3": "",
    "TYPE3": ""
  },
  {
    "INDEX": 71,
    "COMMUNE": "BRIVE",
    "NOM": "P.E.B.O dit Langlade nord",
    "TYPE": "EU",
    "LAT": 45.14107114597429,
    "LONG": 1.4670470170200276,
    "ETAT": "ES",
    "VOLUME": "",
    "CAPACITE(eH)": "",
    "DEBIT(m3/j)": "",
    "DBO(kg/j)": "",
    "DATE MISE EN SERVICE": "",
    "DOCUMENTATION": "",
    "LIEN1": "",
    "TYPE1": "",
    "LIEN2": "",
    "TYPE2": "",
    "LIEN3": "",
    "TYPE3": ""
  },
  {
    "INDEX": 72,
    "COMMUNE": "BRIVE",
    "NOM": "Hall Brassens",
    "TYPE": "EU",
    "LAT": 45.16274776023943,
    "LONG": 1.5346216380173923,
    "ETAT": "ES",
    "VOLUME": "",
    "CAPACITE(eH)": "",
    "DEBIT(m3/j)": "",
    "DBO(kg/j)": "",
    "DATE MISE EN SERVICE": "",
    "DOCUMENTATION": "Brive - PR Georges Brassens.pdf",
    "LIEN1": "",
    "TYPE1": "",
    "LIEN2": "",
    "TYPE2": "",
    "LIEN3": "",
    "TYPE3": ""
  },
  {
    "INDEX": 73,
    "COMMUNE": "CHABRIGNAC",
    "NOM": "Chabrignac",
    "TYPE": "STEP Filtres plantés de roseaux",
    "LAT": 45.30779515956313,
    "LONG": 1.3509838802338205,
    "ETAT": "ES",
    "VOLUME": "",
    "CAPACITE(eH)": 270,
    "DEBIT(m3/j)": 40.5,
    "DBO(kg/j)": 16.2,
    "DATE MISE EN SERVICE": 2008,
    "DOCUMENTATION": "Chabrignac - Fiche STEP de la Perche.pdf",
    "LIEN1": "",
    "TYPE1": "",
    "LIEN2": "",
    "TYPE2": "",
    "LIEN3": "",
    "TYPE3": ""
  },
  {
    "INDEX": 74,
    "COMMUNE": "CHABRIGNAC",
    "NOM": "la Perche",
    "TYPE": "PR",
    "LAT": 45.30749744110191,
    "LONG": 1.3419456226143764,
    "ETAT": "ES",
    "VOLUME": "",
    "CAPACITE(eH)": "",
    "DEBIT(m3/j)": "NC",
    "DBO(kg/j)": "",
    "DATE MISE EN SERVICE": "",
    "DOCUMENTATION": "Chabrignac - PR de la Perche.pdf",
    "LIEN1": "",
    "TYPE1": "",
    "LIEN2": "",
    "TYPE2": "",
    "LIEN3": "",
    "TYPE3": ""
  },
  {
    "INDEX": 75,
    "COMMUNE": "CHAPELLE-AUX-BROCS",
    "NOM": "Germane",
    "TYPE": "STEP Filtres plantés de roseaux",
    "LAT": 45.13946989637868,
    "LONG": 1.643209162753836,
    "ETAT": "ES",
    "VOLUME": "",
    "CAPACITE(eH)": 60,
    "DEBIT(m3/j)": 9,
    "DBO(kg/j)": 3.6,
    "DATE MISE EN SERVICE": 2009,
    "DOCUMENTATION": "La Chapelle aux Brocs - STEP de la Germane.pdf",
    "LIEN1": "",
    "TYPE1": "",
    "LIEN2": "",
    "TYPE2": "",
    "LIEN3": "",
    "TYPE3": ""
  },
  {
    "INDEX": 76,
    "COMMUNE": "CHARTRIER-FERRIERE",
    "NOM": "Poste de chloration de Coudonnet",
    "TYPE": "Poste de chloration",
    "LAT": 45.05080185512785,
    "LONG": 1.448233176378617,
    "ETAT": "ES",
    "VOLUME": "",
    "CAPACITE(eH)": "",
    "DEBIT(m3/j)": "",
    "DBO(kg/j)": "",
    "DATE MISE EN SERVICE": "",
    "DOCUMENTATION": "",
    "LIEN1": "",
    "TYPE1": "",
    "LIEN2": "",
    "TYPE2": "",
    "LIEN3": "",
    "TYPE3": ""
  },
  {
    "INDEX": 77,
    "COMMUNE": "CHASTEAUX",
    "NOM": "Port Couzage",
    "TYPE": "EU",
    "LAT": 45.093164418573345,
    "LONG": 1.4453602793892661,
    "ETAT": "ES",
    "VOLUME": "",
    "CAPACITE(eH)": "",
    "DEBIT(m3/j)": "",
    "DBO(kg/j)": "",
    "DATE MISE EN SERVICE": "",
    "DOCUMENTATION": "Chasteaux - PR du Port Couzage.pdf",
    "LIEN1": "",
    "TYPE1": "",
    "LIEN2": "",
    "TYPE2": "",
    "LIEN3": "",
    "TYPE3": ""
  },
  {
    "INDEX": 78,
    "COMMUNE": "CHASTEAUX",
    "NOM": "Usine de production d'eau potable du Blagour",
    "TYPE": "Usine",
    "LAT": 45.09259119060872,
    "LONG": 1.4755663364709923,
    "ETAT": "ES",
    "VOLUME": "",
    "CAPACITE(eH)": "",
    "DEBIT(m3/j)": "",
    "DBO(kg/j)": "",
    "DATE MISE EN SERVICE": "",
    "DOCUMENTATION": "",
    "LIEN1": 81,
    "TYPE1": "EP",
    "LIEN2": 82,
    "TYPE2": "EP",
    "LIEN3": "",
    "TYPE3": ""
  },
  {
    "INDEX": 79,
    "COMMUNE": "CHASTEAUX",
    "NOM": "Forages d'Entrecors",
    "TYPE": "Ressource",
    "LAT": 45.09071475995126,
    "LONG": 1.47399507358637,
    "ETAT": "ES",
    "VOLUME": "",
    "CAPACITE(eH)": "",
    "DEBIT(m3/j)": "",
    "DBO(kg/j)": "",
    "DATE MISE EN SERVICE": "",
    "DOCUMENTATION": "",
    "LIEN1": 78,
    "TYPE1": "EB",
    "LIEN2": "",
    "TYPE2": "",
    "LIEN3": "",
    "TYPE3": ""
  },
  {
    "INDEX": 80,
    "COMMUNE": "CHASTEAUX",
    "NOM": "Résurgence du Blagour",
    "TYPE": "Ressource",
    "LAT": 45.092152369211426,
    "LONG": 1.4755336735201432,
    "ETAT": "HS",
    "VOLUME": "",
    "CAPACITE(eH)": "",
    "DEBIT(m3/j)": "",
    "DBO(kg/j)": "",
    "DATE MISE EN SERVICE": "",
    "DOCUMENTATION": "",
    "LIEN1": 78,
    "TYPE1": "EB",
    "LIEN2": "",
    "TYPE2": "",
    "LIEN3": "",
    "TYPE3": ""
  },
  {
    "INDEX": 81,
    "COMMUNE": "CHASTEAUX",
    "NOM": "Réservoir du Blagour N°1",
    "TYPE": "Réservoir sur usine",
    "LAT": 45.092651176727436,
    "LONG": 1.4755111399131213,
    "ETAT": "ES",
    "VOLUME": 200,
    "CAPACITE(eH)": "",
    "DEBIT(m3/j)": "",
    "DBO(kg/j)": "",
    "DATE MISE EN SERVICE": "",
    "DOCUMENTATION": "",
    "LIEN1": 89,
    "TYPE1": "EP",
    "LIEN2": 90,
    "TYPE2": "EP",
    "LIEN3": "",
    "TYPE3": ""
  },
  {
    "INDEX": 82,
    "COMMUNE": "CHASTEAUX",
    "NOM": "Réservoir du Blagour N°2",
    "TYPE": "Réservoir sur usine",
    "LAT": 45.092841148928414,
    "LONG": 1.4755988889967497,
    "ETAT": "ES",
    "VOLUME": 80,
    "CAPACITE(eH)": "",
    "DEBIT(m3/j)": "",
    "DBO(kg/j)": "",
    "DATE MISE EN SERVICE": "",
    "DOCUMENTATION": "",
    "LIEN1": 149,
    "TYPE1": "EP",
    "LIEN2": 136,
    "TYPE2": "EP",
    "LIEN3": "",
    "TYPE3": ""
  },
  {
    "INDEX": 83,
    "COMMUNE": "COSNAC",
    "NOM": "Battut",
    "TYPE": "PR",
    "LAT": 45.14693122470387,
    "LONG": 1.5985499426786218,
    "ETAT": "ES",
    "VOLUME": "",
    "CAPACITE(eH)": "",
    "DEBIT(m3/j)": "NC",
    "DBO(kg/j)": "",
    "DATE MISE EN SERVICE": "",
    "DOCUMENTATION": "Cosnac - PR du Battut.pdf",
    "LIEN1": "",
    "TYPE1": "",
    "LIEN2": "",
    "TYPE2": "",
    "LIEN3": "",
    "TYPE3": ""
  },
  {
    "INDEX": 84,
    "COMMUNE": "COSNAC",
    "NOM": "Beyssaguet",
    "TYPE": "PR",
    "LAT": 45.13638988190267,
    "LONG": 1.595276915425707,
    "ETAT": "ES",
    "VOLUME": "",
    "CAPACITE(eH)": "",
    "DEBIT(m3/j)": "NC",
    "DBO(kg/j)": "",
    "DATE MISE EN SERVICE": "",
    "DOCUMENTATION": "Cosnac - PR de Beyssaguet.pdf",
    "LIEN1": "",
    "TYPE1": "",
    "LIEN2": "",
    "TYPE2": "",
    "LIEN3": "",
    "TYPE3": ""
  },
  {
    "INDEX": 85,
    "COMMUNE": "COSNAC",
    "NOM": "Bleyzat",
    "TYPE": "PR",
    "LAT": 45.133887065127574,
    "LONG": 1.6025027956381612,
    "ETAT": "ES",
    "VOLUME": "",
    "CAPACITE(eH)": "",
    "DEBIT(m3/j)": "",
    "DBO(kg/j)": "",
    "DATE MISE EN SERVICE": "",
    "DOCUMENTATION": "Cosnac - PR de Bleyzat.pdf",
    "LIEN1": "",
    "TYPE1": "",
    "LIEN2": "",
    "TYPE2": "",
    "LIEN3": "",
    "TYPE3": ""
  },
  {
    "INDEX": 86,
    "COMMUNE": "COSNAC",
    "NOM": "Station de reprise de Bessas",
    "TYPE": "Réservoir + reprise",
    "LAT": 45.135809384614184,
    "LONG": 1.5892872163761147,
    "ETAT": "HS",
    "VOLUME": 50,
    "CAPACITE(eH)": "",
    "DEBIT(m3/j)": "",
    "DBO(kg/j)": "",
    "DATE MISE EN SERVICE": "",
    "DOCUMENTATION": "",
    "LIEN1": "",
    "TYPE1": "",
    "LIEN2": "",
    "TYPE2": "",
    "LIEN3": "",
    "TYPE3": ""
  },
  {
    "INDEX": 87,
    "COMMUNE": "COSNAC",
    "NOM": "Réservoir d'Ayras",
    "TYPE": "Réservoir",
    "LAT": 45.15181427651469,
    "LONG": 1.5797712455235335,
    "ETAT": "ES",
    "VOLUME": 500,
    "CAPACITE(eH)": "",
    "DEBIT(m3/j)": "",
    "DBO(kg/j)": "",
    "DATE MISE EN SERVICE": "",
    "DOCUMENTATION": "",
    "LIEN1": "",
    "TYPE1": "",
    "LIEN2": "",
    "TYPE2": "",
    "LIEN3": "",
    "TYPE3": ""
  },
  {
    "INDEX": 88,
    "COMMUNE": "COSNAC",
    "NOM": "Réservoir de Bleyzat",
    "TYPE": "Réservoir",
    "LAT": 45.1313410879561,
    "LONG": 1.5968010134458521,
    "ETAT": "ES",
    "VOLUME": 200,
    "CAPACITE(eH)": "",
    "DEBIT(m3/j)": "",
    "DBO(kg/j)": "",
    "DATE MISE EN SERVICE": "",
    "DOCUMENTATION": "",
    "LIEN1": "",
    "TYPE1": "",
    "LIEN2": "",
    "TYPE2": "",
    "LIEN3": "",
    "TYPE3": ""
  },
  {
    "INDEX": 89,
    "COMMUNE": "COSNAC",
    "NOM": "Réservoir de Malepeyre N°1",
    "TYPE": "Réservoir",
    "LAT": 45.10632208092971,
    "LONG": 1.5881657921763708,
    "ETAT": "ES",
    "VOLUME": 500,
    "CAPACITE(eH)": "",
    "DEBIT(m3/j)": "",
    "DBO(kg/j)": "",
    "DATE MISE EN SERVICE": "",
    "DOCUMENTATION": "",
    "LIEN1": 54,
    "TYPE1": "EP",
    "LIEN2": "",
    "TYPE2": "",
    "LIEN3": "",
    "TYPE3": ""
  },
  {
    "INDEX": 90,
    "COMMUNE": "COSNAC",
    "NOM": "Réservoir de Malepeyre N°2",
    "TYPE": "Réservoir",
    "LAT": 45.106112649178066,
    "LONG": 1.5882673056885634,
    "ETAT": "ES",
    "VOLUME": 2000,
    "CAPACITE(eH)": "",
    "DEBIT(m3/j)": "",
    "DBO(kg/j)": "",
    "DATE MISE EN SERVICE": "",
    "DOCUMENTATION": "",
    "LIEN1": "",
    "TYPE1": "",
    "LIEN2": "",
    "TYPE2": "",
    "LIEN3": "",
    "TYPE3": ""
  },
  {
    "INDEX": 91,
    "COMMUNE": "COUBJOURS",
    "NOM": "Réservoir de Coubjours",
    "TYPE": "Réservoir",
    "LAT": 45.25279534332987,
    "LONG": 1.2573833092114555,
    "ETAT": "ES",
    "VOLUME": 300,
    "CAPACITE(eH)": "",
    "DEBIT(m3/j)": "",
    "DBO(kg/j)": "",
    "DATE MISE EN SERVICE": "",
    "DOCUMENTATION": "",
    "LIEN1": "",
    "TYPE1": "",
    "LIEN2": "",
    "TYPE2": "",
    "LIEN3": "",
    "TYPE3": ""
  },
  {
    "INDEX": 92,
    "COMMUNE": "CUBLAC",
    "NOM": "Loubignac",
    "TYPE": "STEP Filtres plantés de roseaux",
    "LAT": 45.15749888834115,
    "LONG": 1.2903733925382368,
    "ETAT": "ES",
    "VOLUME": "",
    "CAPACITE(eH)": 50,
    "DEBIT(m3/j)": 7.5,
    "DBO(kg/j)": 3,
    "DATE MISE EN SERVICE": 2008,
    "DOCUMENTATION": "Cublac - Fiche STEP de Loubignac.pdf",
    "LIEN1": "",
    "TYPE1": "",
    "LIEN2": "",
    "TYPE2": "",
    "LIEN3": "",
    "TYPE3": ""
  },
  {
    "INDEX": 93,
    "COMMUNE": "CUBLAC",
    "NOM": "Stade",
    "TYPE": "PR",
    "LAT": 45.14416870989816,
    "LONG": 1.308894223485913,
    "ETAT": "ES",
    "VOLUME": "",
    "CAPACITE(eH)": "",
    "DEBIT(m3/j)": "NC",
    "DBO(kg/j)": "",
    "DATE MISE EN SERVICE": "",
    "DOCUMENTATION": "Cublac - PR du Stade.pdf",
    "LIEN1": "",
    "TYPE1": "",
    "LIEN2": "",
    "TYPE2": "",
    "LIEN3": "",
    "TYPE3": ""
  },
  {
    "INDEX": 94,
    "COMMUNE": "CUBLAC",
    "NOM": "Cabanne",
    "TYPE": "PR",
    "LAT": 45.1505565632658,
    "LONG": 1.301942512168984,
    "ETAT": "ES",
    "VOLUME": "",
    "CAPACITE(eH)": "",
    "DEBIT(m3/j)": "NC",
    "DBO(kg/j)": "",
    "DATE MISE EN SERVICE": "",
    "DOCUMENTATION": "Cublac - PR de la Cabanne.pdf",
    "LIEN1": "",
    "TYPE1": "",
    "LIEN2": "",
    "TYPE2": "",
    "LIEN3": "",
    "TYPE3": ""
  },
  {
    "INDEX": 95,
    "COMMUNE": "CUBLAC",
    "NOM": "Valat",
    "TYPE": "PR",
    "LAT": 45.13693952807039,
    "LONG": 1.3054080814134277,
    "ETAT": "ES",
    "VOLUME": "",
    "CAPACITE(eH)": "",
    "DEBIT(m3/j)": "NC",
    "DBO(kg/j)": "",
    "DATE MISE EN SERVICE": "",
    "DOCUMENTATION": "Cublac - PR du Valat.pdf",
    "LIEN1": "",
    "TYPE1": "",
    "LIEN2": "",
    "TYPE2": "",
    "LIEN3": "",
    "TYPE3": ""
  },
  {
    "INDEX": 96,
    "COMMUNE": "CUBLAC",
    "NOM": "Basse Riviere",
    "TYPE": "PR",
    "LAT": 45.14591970618699,
    "LONG": 1.3646942999389724,
    "ETAT": "ES",
    "VOLUME": "",
    "CAPACITE(eH)": "",
    "DEBIT(m3/j)": "NC",
    "DBO(kg/j)": "",
    "DATE MISE EN SERVICE": "",
    "DOCUMENTATION": "Cublac - PR de Basse Rivière.pdf",
    "LIEN1": "",
    "TYPE1": "",
    "LIEN2": "",
    "TYPE2": "",
    "LIEN3": "",
    "TYPE3": ""
  },
  {
    "INDEX": 97,
    "COMMUNE": "CUBLAC",
    "NOM": "La Rochette",
    "TYPE": "PR",
    "LAT": 45.14472319521139,
    "LONG": 1.3205601120716135,
    "ETAT": "ES",
    "VOLUME": "",
    "CAPACITE(eH)": "",
    "DEBIT(m3/j)": "NC",
    "DBO(kg/j)": "",
    "DATE MISE EN SERVICE": "",
    "DOCUMENTATION": "Cublac - PR de la Rochette.pdf",
    "LIEN1": "",
    "TYPE1": "",
    "LIEN2": "",
    "TYPE2": "",
    "LIEN3": "",
    "TYPE3": ""
  },
  {
    "INDEX": 98,
    "COMMUNE": "CUBLAC",
    "NOM": "Réservoir de la Géronie",
    "TYPE": "Réservoir",
    "LAT": 45.15388360305515,
    "LONG": 1.3363679080037214,
    "ETAT": "ES",
    "VOLUME": 200,
    "CAPACITE(eH)": "",
    "DEBIT(m3/j)": "",
    "DBO(kg/j)": "",
    "DATE MISE EN SERVICE": "",
    "DOCUMENTATION": "",
    "LIEN1": "",
    "TYPE1": "",
    "LIEN2": "",
    "TYPE2": "",
    "LIEN3": "",
    "TYPE3": ""
  },
  {
    "INDEX": 99,
    "COMMUNE": "CUBLAC",
    "NOM": "Réservoirs de Lacombe N°1",
    "TYPE": "Réservoir",
    "LAT": 45.14988476414045,
    "LONG": 1.3568901850266564,
    "ETAT": "ES",
    "VOLUME": 500,
    "CAPACITE(eH)": "",
    "DEBIT(m3/j)": "",
    "DBO(kg/j)": "",
    "DATE MISE EN SERVICE": "",
    "DOCUMENTATION": "",
    "LIEN1": "",
    "TYPE1": "",
    "LIEN2": "",
    "TYPE2": "",
    "LIEN3": "",
    "TYPE3": ""
  },
  {
    "INDEX": 100,
    "COMMUNE": "CUBLAC",
    "NOM": "Réservoirs de Lacombe N°2",
    "TYPE": "Réservoir",
    "LAT": 45.15002958841408,
    "LONG": 1.3569645510835777,
    "ETAT": "HS",
    "VOLUME": 400,
    "CAPACITE(eH)": "",
    "DEBIT(m3/j)": "",
    "DBO(kg/j)": "",
    "DATE MISE EN SERVICE": "",
    "DOCUMENTATION": "",
    "LIEN1": "",
    "TYPE1": "",
    "LIEN2": "",
    "TYPE2": "",
    "LIEN3": "",
    "TYPE3": ""
  },
  {
    "INDEX": 101,
    "COMMUNE": "CUBLAC",
    "NOM": "Surpresseur du Bousquet",
    "TYPE": "Reprise seule",
    "LAT": 45.14739419615103,
    "LONG": 1.2996565576329615,
    "ETAT": "ES",
    "VOLUME": "",
    "CAPACITE(eH)": "",
    "DEBIT(m3/j)": "",
    "DBO(kg/j)": "",
    "DATE MISE EN SERVICE": "",
    "DOCUMENTATION": "",
    "LIEN1": "",
    "TYPE1": "",
    "LIEN2": "",
    "TYPE2": "",
    "LIEN3": "",
    "TYPE3": ""
  },
  {
    "INDEX": 102,
    "COMMUNE": "DAMPNIAT",
    "NOM": "Ste Marie",
    "TYPE": "STEP Microstation filtre coco",
    "LAT": 45.17741956503611,
    "LONG": 1.6405348099255086,
    "ETAT": "ES",
    "VOLUME": "",
    "CAPACITE(eH)": 40,
    "DEBIT(m3/j)": "",
    "DBO(kg/j)": "",
    "DATE MISE EN SERVICE": 2010,
    "DOCUMENTATION": "Dampniat - STEP de Ste Marie.pdf",
    "LIEN1": "",
    "TYPE1": "",
    "LIEN2": "",
    "TYPE2": "",
    "LIEN3": "",
    "TYPE3": ""
  },
  {
    "INDEX": 103,
    "COMMUNE": "DAMPNIAT",
    "NOM": "Stade",
    "TYPE": "PR",
    "LAT": 45.16499663049593,
    "LONG": 1.6319451909428933,
    "ETAT": "ES",
    "VOLUME": "",
    "CAPACITE(eH)": "",
    "DEBIT(m3/j)": "NC",
    "DBO(kg/j)": "",
    "DATE MISE EN SERVICE": "",
    "DOCUMENTATION": "Dampniat - PR du Stade.pdf",
    "LIEN1": "",
    "TYPE1": "",
    "LIEN2": "",
    "TYPE2": "",
    "LIEN3": "",
    "TYPE3": ""
  },
  {
    "INDEX": 104,
    "COMMUNE": "DAMPNIAT",
    "NOM": "Lafarge",
    "TYPE": "PR",
    "LAT": 45.16555905254624,
    "LONG": 1.6286088894600483,
    "ETAT": "ES",
    "VOLUME": "",
    "CAPACITE(eH)": "",
    "DEBIT(m3/j)": "NC",
    "DBO(kg/j)": "",
    "DATE MISE EN SERVICE": "",
    "DOCUMENTATION": "Dampniat - PR de Lafarge.pdf",
    "LIEN1": "",
    "TYPE1": "",
    "LIEN2": "",
    "TYPE2": "",
    "LIEN3": "",
    "TYPE3": ""
  },
  {
    "INDEX": 105,
    "COMMUNE": "DAMPNIAT",
    "NOM": "Bourg",
    "TYPE": "PR",
    "LAT": 45.167778128470076,
    "LONG": 1.6311132309993532,
    "ETAT": "ES",
    "VOLUME": "",
    "CAPACITE(eH)": "",
    "DEBIT(m3/j)": "NC",
    "DBO(kg/j)": "",
    "DATE MISE EN SERVICE": "",
    "DOCUMENTATION": "Dampniat - PR du Bourg.pdf",
    "LIEN1": "",
    "TYPE1": "",
    "LIEN2": "",
    "TYPE2": "",
    "LIEN3": "",
    "TYPE3": ""
  },
  {
    "INDEX": 106,
    "COMMUNE": "DAMPNIAT",
    "NOM": "Réservoir de Dampniat",
    "TYPE": "Réservoir",
    "LAT": 45.16283132250256,
    "LONG": 1.6308316365440276,
    "ETAT": "ES",
    "VOLUME": 150,
    "CAPACITE(eH)": "",
    "DEBIT(m3/j)": "",
    "DBO(kg/j)": "",
    "DATE MISE EN SERVICE": "",
    "DOCUMENTATION": "",
    "LIEN1": "",
    "TYPE1": "",
    "LIEN2": "",
    "TYPE2": "",
    "LIEN3": "",
    "TYPE3": ""
  },
  {
    "INDEX": 107,
    "COMMUNE": "DAMPNIAT",
    "NOM": "Réservoir de Fontgrande N°1",
    "TYPE": "Réservoir",
    "LAT": 45.16681635157057,
    "LONG": 1.6030349223189795,
    "ETAT": "ES",
    "VOLUME": 500,
    "CAPACITE(eH)": "",
    "DEBIT(m3/j)": "",
    "DBO(kg/j)": "",
    "DATE MISE EN SERVICE": "",
    "DOCUMENTATION": "",
    "LIEN1": "",
    "TYPE1": "",
    "LIEN2": "",
    "TYPE2": "",
    "LIEN3": "",
    "TYPE3": ""
  },
  {
    "INDEX": 108,
    "COMMUNE": "DAMPNIAT",
    "NOM": "Réservoir de Fontgrande N°2",
    "TYPE": "Réservoir",
    "LAT": 45.16668619787211,
    "LONG": 1.6031476996796357,
    "ETAT": "ES",
    "VOLUME": 1000,
    "CAPACITE(eH)": "",
    "DEBIT(m3/j)": "",
    "DBO(kg/j)": "",
    "DATE MISE EN SERVICE": "",
    "DOCUMENTATION": "",
    "LIEN1": "",
    "TYPE1": "",
    "LIEN2": "",
    "TYPE2": "",
    "LIEN3": "",
    "TYPE3": ""
  },
  {
    "INDEX": 109,
    "COMMUNE": "DAMPNIAT",
    "NOM": "Surpresseur de la Francie",
    "TYPE": "Reprise seule",
    "LAT": 45.17023083983189,
    "LONG": 1.6362506263904681,
    "ETAT": "ES",
    "VOLUME": "",
    "CAPACITE(eH)": "",
    "DEBIT(m3/j)": "",
    "DBO(kg/j)": "",
    "DATE MISE EN SERVICE": "",
    "DOCUMENTATION": "",
    "LIEN1": "",
    "TYPE1": "",
    "LIEN2": "",
    "TYPE2": "",
    "LIEN3": "",
    "TYPE3": ""
  },
  {
    "INDEX": 110,
    "COMMUNE": "DONZENAC",
    "NOM": "Route du rond",
    "TYPE": "STEP Station biologique boue activée",
    "LAT": 45.21970935633569,
    "LONG": 1.5169875767021817,
    "ETAT": "ES",
    "VOLUME": "",
    "CAPACITE(eH)": 2000,
    "DEBIT(m3/j)": 300,
    "DBO(kg/j)": 120,
    "DATE MISE EN SERVICE": 1976,
    "DOCUMENTATION": "Donzenac -  Fiche STEP de La Route du Rond.pdf",
    "LIEN1": "",
    "TYPE1": "",
    "LIEN2": "",
    "TYPE2": "",
    "LIEN3": "",
    "TYPE3": ""
  },
  {
    "INDEX": 111,
    "COMMUNE": "DONZENAC",
    "NOM": "La rochette",
    "TYPE": "STEP Filtres plantés de roseaux",
    "LAT": 45.2502803892434,
    "LONG": 1.510836635030658,
    "ETAT": "ES",
    "VOLUME": "",
    "CAPACITE(eH)": 75,
    "DEBIT(m3/j)": 11.25,
    "DBO(kg/j)": 45,
    "DATE MISE EN SERVICE": 2019,
    "DOCUMENTATION": "Donzenac - Fiche STEP de La Rochette.pdf",
    "LIEN1": "",
    "TYPE1": "",
    "LIEN2": "",
    "TYPE2": "",
    "LIEN3": "",
    "TYPE3": ""
  },
  {
    "INDEX": 112,
    "COMMUNE": "DONZENAC",
    "NOM": "Le Clou",
    "TYPE": "PR",
    "LAT": 45.225848472765335,
    "LONG": 1.531596535897342,
    "ETAT": "ES",
    "VOLUME": "",
    "CAPACITE(eH)": "",
    "DEBIT(m3/j)": "NC",
    "DBO(kg/j)": "",
    "DATE MISE EN SERVICE": "",
    "DOCUMENTATION": "Donzenac - PR du Clou.pdf",
    "LIEN1": "",
    "TYPE1": "",
    "LIEN2": "",
    "TYPE2": "",
    "LIEN3": "",
    "TYPE3": ""
  },
  {
    "INDEX": 113,
    "COMMUNE": "DONZENAC",
    "NOM": "AV. Jean Chicou (av de Paris)",
    "TYPE": "PR",
    "LAT": 45.228,
    "LONG": 1.52654,
    "ETAT": "ES",
    "VOLUME": "",
    "CAPACITE(eH)": "",
    "DEBIT(m3/j)": "NC",
    "DBO(kg/j)": "",
    "DATE MISE EN SERVICE": "",
    "DOCUMENTATION": "Donzenac - PR de l'Avenue Jeau Chicou.pdf",
    "LIEN1": "",
    "TYPE1": "",
    "LIEN2": "",
    "TYPE2": "",
    "LIEN3": "",
    "TYPE3": ""
  },
  {
    "INDEX": 114,
    "COMMUNE": "DONZENAC",
    "NOM": "Route d'Ussac",
    "TYPE": "PR",
    "LAT": 45.21287432196147,
    "LONG": 1.5210330732747646,
    "ETAT": "ES",
    "VOLUME": "",
    "CAPACITE(eH)": "",
    "DEBIT(m3/j)": "NC",
    "DBO(kg/j)": "",
    "DATE MISE EN SERVICE": "",
    "DOCUMENTATION": "Donzenac - PR des Briquetteries.pdf",
    "LIEN1": "",
    "TYPE1": "",
    "LIEN2": "",
    "TYPE2": "",
    "LIEN3": "",
    "TYPE3": ""
  },
  {
    "INDEX": 115,
    "COMMUNE": "DONZENAC",
    "NOM": "Station d'eau potable des Mandaroux",
    "TYPE": "Usine",
    "LAT": 45.24797894851163,
    "LONG": 1.5194027561001544,
    "ETAT": "ES",
    "VOLUME": "",
    "CAPACITE(eH)": "",
    "DEBIT(m3/j)": "",
    "DBO(kg/j)": "",
    "DATE MISE EN SERVICE": "",
    "DOCUMENTATION": "",
    "LIEN1": 124,
    "TYPE1": "EP",
    "LIEN2": "",
    "TYPE2": "",
    "LIEN3": "",
    "TYPE3": ""
  },
  {
    "INDEX": 116,
    "COMMUNE": "DONZENAC",
    "NOM": "Regard collecteur des Mandaroux",
    "TYPE": "Ressource",
    "LAT": 45.247865,
    "LONG": 1.519329,
    "ETAT": "ES",
    "VOLUME": "",
    "CAPACITE(eH)": "",
    "DEBIT(m3/j)": "",
    "DBO(kg/j)": "",
    "DATE MISE EN SERVICE": "",
    "DOCUMENTATION": "",
    "LIEN1": 115,
    "TYPE1": "EB",
    "LIEN2": "",
    "TYPE2": "",
    "LIEN3": "",
    "TYPE3": ""
  },
  {
    "INDEX": 117,
    "COMMUNE": "DONZENAC",
    "NOM": "Captage des Mandaroux N°3",
    "TYPE": "Ressource",
    "LAT": 45.26045775833434,
    "LONG": 1.5306692459861557,
    "ETAT": "ES",
    "VOLUME": "",
    "CAPACITE(eH)": "",
    "DEBIT(m3/j)": "",
    "DBO(kg/j)": "",
    "DATE MISE EN SERVICE": "",
    "DOCUMENTATION": "",
    "LIEN1": 116,
    "TYPE1": "EB",
    "LIEN2": "",
    "TYPE2": "",
    "LIEN3": "",
    "TYPE3": ""
  },
  {
    "INDEX": 118,
    "COMMUNE": "DONZENAC",
    "NOM": "Captage des Mandaroux N°4",
    "TYPE": "Ressource",
    "LAT": 45.261678131812005,
    "LONG": 1.5321611871458947,
    "ETAT": "ES",
    "VOLUME": "",
    "CAPACITE(eH)": "",
    "DEBIT(m3/j)": "",
    "DBO(kg/j)": "",
    "DATE MISE EN SERVICE": "",
    "DOCUMENTATION": "",
    "LIEN1": 116,
    "TYPE1": "EB",
    "LIEN2": "",
    "TYPE2": "",
    "LIEN3": "",
    "TYPE3": ""
  },
  {
    "INDEX": 119,
    "COMMUNE": "DONZENAC",
    "NOM": "Captage des Mandaroux N°5",
    "TYPE": "Ressource",
    "LAT": 45.26075016872718,
    "LONG": 1.5325479959506525,
    "ETAT": "ES",
    "VOLUME": "",
    "CAPACITE(eH)": "",
    "DEBIT(m3/j)": "",
    "DBO(kg/j)": "",
    "DATE MISE EN SERVICE": "",
    "DOCUMENTATION": "",
    "LIEN1": 116,
    "TYPE1": "EB",
    "LIEN2": "",
    "TYPE2": "",
    "LIEN3": "",
    "TYPE3": ""
  },
  {
    "INDEX": 120,
    "COMMUNE": "DONZENAC",
    "NOM": "Captage des Mandaroux N°6",
    "TYPE": "Ressource",
    "LAT": 45.26022965509873,
    "LONG": 1.5326910263718156,
    "ETAT": "ES",
    "VOLUME": "",
    "CAPACITE(eH)": "",
    "DEBIT(m3/j)": "",
    "DBO(kg/j)": "",
    "DATE MISE EN SERVICE": "",
    "DOCUMENTATION": "",
    "LIEN1": 116,
    "TYPE1": "EB",
    "LIEN2": "",
    "TYPE2": "",
    "LIEN3": "",
    "TYPE3": ""
  },
  {
    "INDEX": 121,
    "COMMUNE": "DONZENAC",
    "NOM": "Captage des Mandaroux N°7",
    "TYPE": "Ressource",
    "LAT": 45.25649762222761,
    "LONG": 1.5337819834420543,
    "ETAT": "ES",
    "VOLUME": "",
    "CAPACITE(eH)": "",
    "DEBIT(m3/j)": "",
    "DBO(kg/j)": "",
    "DATE MISE EN SERVICE": "",
    "DOCUMENTATION": "",
    "LIEN1": 116,
    "TYPE1": "EB",
    "LIEN2": "",
    "TYPE2": "",
    "LIEN3": "",
    "TYPE3": ""
  },
  {
    "INDEX": 122,
    "COMMUNE": "DONZENAC",
    "NOM": "Captage des Mandaroux N°8",
    "TYPE": "Ressource",
    "LAT": 45.25555784340119,
    "LONG": 1.5335456310859936,
    "ETAT": "ES",
    "VOLUME": "",
    "CAPACITE(eH)": "",
    "DEBIT(m3/j)": "",
    "DBO(kg/j)": "",
    "DATE MISE EN SERVICE": "",
    "DOCUMENTATION": "",
    "LIEN1": 116,
    "TYPE1": "EB",
    "LIEN2": "",
    "TYPE2": "",
    "LIEN3": "",
    "TYPE3": ""
  },
  {
    "INDEX": 123,
    "COMMUNE": "DONZENAC",
    "NOM": "Réservoir des Mandaroux",
    "TYPE": "Réservoir sur usine",
    "LAT": 45.25652988655067,
    "LONG": 1.499477794743831,
    "ETAT": "ES",
    "VOLUME": 140,
    "CAPACITE(eH)": "",
    "DEBIT(m3/j)": "",
    "DBO(kg/j)": "",
    "DATE MISE EN SERVICE": "",
    "DOCUMENTATION": "",
    "LIEN1": 127,
    "TYPE1": "EP",
    "LIEN2": "",
    "TYPE2": "",
    "LIEN3": "",
    "TYPE3": ""
  },
  {
    "INDEX": 124,
    "COMMUNE": "DONZENAC",
    "NOM": "Réservoir du Chassang",
    "TYPE": "Réservoir + reprise",
    "LAT": 45.237080668797894,
    "LONG": 1.5187982194615854,
    "ETAT": "ES",
    "VOLUME": 500,
    "CAPACITE(eH)": "",
    "DEBIT(m3/j)": "",
    "DBO(kg/j)": "",
    "DATE MISE EN SERVICE": "",
    "DOCUMENTATION": "",
    "LIEN1": "",
    "TYPE1": "",
    "LIEN2": "",
    "TYPE2": "",
    "LIEN3": "",
    "TYPE3": ""
  },
  {
    "INDEX": 125,
    "COMMUNE": "DONZENAC",
    "NOM": "Station de reprise de Lavaud",
    "TYPE": "Réservoir + reprise",
    "LAT": 45.228704055354015,
    "LONG": 1.506736891075229,
    "ETAT": "ES",
    "VOLUME": 100,
    "CAPACITE(eH)": "",
    "DEBIT(m3/j)": "",
    "DBO(kg/j)": "",
    "DATE MISE EN SERVICE": "",
    "DOCUMENTATION": "",
    "LIEN1": 124,
    "TYPE1": "EP",
    "LIEN2": "",
    "TYPE2": "",
    "LIEN3": "",
    "TYPE3": ""
  },
  {
    "INDEX": 126,
    "COMMUNE": "DONZENAC",
    "NOM": "Réservoir de Genouillac",
    "TYPE": "Réservoir",
    "LAT": 45.24118070961842,
    "LONG": 1.5286438583060935,
    "ETAT": "ES",
    "VOLUME": 100,
    "CAPACITE(eH)": "",
    "DEBIT(m3/j)": "",
    "DBO(kg/j)": "",
    "DATE MISE EN SERVICE": "",
    "DOCUMENTATION": "",
    "LIEN1": 531,
    "TYPE1": "EP",
    "LIEN2": "",
    "TYPE2": "",
    "LIEN3": "",
    "TYPE3": ""
  },
  {
    "INDEX": 127,
    "COMMUNE": "DONZENAC",
    "NOM": "Réservoir de la Rochette",
    "TYPE": "Réservoir",
    "LAT": 45.25099133298038,
    "LONG": 1.5176840221987442,
    "ETAT": "ES",
    "VOLUME": 100,
    "CAPACITE(eH)": "",
    "DEBIT(m3/j)": "",
    "DBO(kg/j)": "",
    "DATE MISE EN SERVICE": "",
    "DOCUMENTATION": "",
    "LIEN1": "",
    "TYPE1": "",
    "LIEN2": "",
    "TYPE2": "",
    "LIEN3": "",
    "TYPE3": ""
  },
  {
    "INDEX": 128,
    "COMMUNE": "DONZENAC",
    "NOM": "Réservoir des Vieux Bassins N°1",
    "TYPE": "Réservoir",
    "LAT": 45.23077029874457,
    "LONG": 1.5201903316819247,
    "ETAT": "ES",
    "VOLUME": 100,
    "CAPACITE(eH)": "",
    "DEBIT(m3/j)": "",
    "DBO(kg/j)": "",
    "DATE MISE EN SERVICE": "",
    "DOCUMENTATION": "",
    "LIEN1": "",
    "TYPE1": "",
    "LIEN2": "",
    "TYPE2": "",
    "LIEN3": "",
    "TYPE3": ""
  },
  {
    "INDEX": 129,
    "COMMUNE": "DONZENAC",
    "NOM": "Réservoir des Vieux Bassins N°2",
    "TYPE": "Réservoir",
    "LAT": 45.23077028958308,
    "LONG": 1.5201903191815944,
    "ETAT": "ES",
    "VOLUME": 100,
    "CAPACITE(eH)": "",
    "DEBIT(m3/j)": "",
    "DBO(kg/j)": "",
    "DATE MISE EN SERVICE": "",
    "DOCUMENTATION": "",
    "LIEN1": "",
    "TYPE1": "",
    "LIEN2": "",
    "TYPE2": "",
    "LIEN3": "",
    "TYPE3": ""
  },
  {
    "INDEX": 130,
    "COMMUNE": "DONZENAC",
    "NOM": "Surpresseur d'Enchaumont",
    "TYPE": "Reprise seule",
    "LAT": 45.22634813642104,
    "LONG": 1.5387698258474294,
    "ETAT": "ES",
    "VOLUME": "",
    "CAPACITE(eH)": "",
    "DEBIT(m3/j)": "",
    "DBO(kg/j)": "",
    "DATE MISE EN SERVICE": "",
    "DOCUMENTATION": "",
    "LIEN1": "",
    "TYPE1": "",
    "LIEN2": "",
    "TYPE2": "",
    "LIEN3": "",
    "TYPE3": ""
  },
  {
    "INDEX": 131,
    "COMMUNE": "ESTIVALS",
    "NOM": "Estivals",
    "TYPE": "STEP Filtres plantés de roseaux",
    "LAT": 45.02881866643417,
    "LONG": 1.4603528192204132,
    "ETAT": "ES",
    "VOLUME": "",
    "CAPACITE(eH)": 40,
    "DEBIT(m3/j)": 6,
    "DBO(kg/j)": 2.4,
    "DATE MISE EN SERVICE": 2008,
    "DOCUMENTATION": "Estivals - Fiche STEP d'Estivals.pdf",
    "LIEN1": "",
    "TYPE1": "",
    "LIEN2": "",
    "TYPE2": "",
    "LIEN3": "",
    "TYPE3": ""
  },
  {
    "INDEX": 132,
    "COMMUNE": "ESTIVAUX",
    "NOM": "Estivaux",
    "TYPE": "STEP Lagune",
    "LAT": 45.31230293355307,
    "LONG": 1.4831545665637662,
    "ETAT": "ES",
    "VOLUME": "",
    "CAPACITE(eH)": 180,
    "DEBIT(m3/j)": 10.8,
    "DBO(kg/j)": 27,
    "DATE MISE EN SERVICE": 2000,
    "DOCUMENTATION": "Estivaux - STEP du Bourg.pdf",
    "LIEN1": "",
    "TYPE1": "",
    "LIEN2": "",
    "TYPE2": "",
    "LIEN3": "",
    "TYPE3": ""
  },
  {
    "INDEX": 133,
    "COMMUNE": "ALLASSAC",
    "NOM": "Captages des Placeaux inférieur et médian",
    "TYPE": "Ressource",
    "LAT": 45.295334950851434,
    "LONG": 1.488180536888502,
    "ETAT": "ES",
    "VOLUME": "",
    "CAPACITE(eH)": "",
    "DEBIT(m3/j)": "",
    "DBO(kg/j)": "",
    "DATE MISE EN SERVICE": "",
    "DOCUMENTATION": "",
    "LIEN1": "",
    "TYPE1": "",
    "LIEN2": "",
    "TYPE2": "",
    "LIEN3": "",
    "TYPE3": ""
  },
  {
    "INDEX": 134,
    "COMMUNE": "JUGEALS-NAZARETH",
    "NOM": "Jugeals",
    "TYPE": "STEP Filtres plantés de roseaux",
    "LAT": 45.07999893559834,
    "LONG": 1.549588595915244,
    "ETAT": "ES",
    "VOLUME": "",
    "CAPACITE(eH)": 200,
    "DEBIT(m3/j)": 30,
    "DBO(kg/j)": 12,
    "DATE MISE EN SERVICE": 2006,
    "DOCUMENTATION": "Jugeals-Nazareth- Fiche STEP.pdf",
    "LIEN1": "",
    "TYPE1": "",
    "LIEN2": "",
    "TYPE2": "",
    "LIEN3": "",
    "TYPE3": ""
  },
  {
    "INDEX": 135,
    "COMMUNE": "JUGEALS-NAZARETH",
    "NOM": "Jugeals Nazareth",
    "TYPE": "EU",
    "LAT": 45.0815628803161,
    "LONG": 1.5522917425758327,
    "ETAT": "ES",
    "VOLUME": "",
    "CAPACITE(eH)": "",
    "DEBIT(m3/j)": "",
    "DBO(kg/j)": "",
    "DATE MISE EN SERVICE": "",
    "DOCUMENTATION": "",
    "LIEN1": "",
    "TYPE1": "",
    "LIEN2": "",
    "TYPE2": "",
    "LIEN3": "",
    "TYPE3": ""
  },
  {
    "INDEX": 136,
    "COMMUNE": "JUGEALS-NAZARETH",
    "NOM": "Réservoir de Jugeals",
    "TYPE": "Réservoir",
    "LAT": 45.08198020125521,
    "LONG": 1.5600127367700194,
    "ETAT": "ES",
    "VOLUME": 150,
    "CAPACITE(eH)": "",
    "DEBIT(m3/j)": "",
    "DBO(kg/j)": "",
    "DATE MISE EN SERVICE": "",
    "DOCUMENTATION": "",
    "LIEN1": "",
    "TYPE1": "",
    "LIEN2": "",
    "TYPE2": "",
    "LIEN3": "",
    "TYPE3": ""
  },
  {
    "INDEX": 137,
    "COMMUNE": "JUILLAC",
    "NOM": "COMBEAUX",
    "TYPE": "STEP Biologique +Filtre à sable",
    "LAT": 45.31409302162829,
    "LONG": 1.3174112520154555,
    "ETAT": "ES",
    "VOLUME": "",
    "CAPACITE(eH)": 1000,
    "DEBIT(m3/j)": 150,
    "DBO(kg/j)": 60,
    "DATE MISE EN SERVICE": 1991,
    "DOCUMENTATION": "Juillac - STEP du Combeau.pdf",
    "LIEN1": "",
    "TYPE1": "",
    "LIEN2": "",
    "TYPE2": "",
    "LIEN3": "",
    "TYPE3": ""
  },
  {
    "INDEX": 138,
    "COMMUNE": "JUILLAC",
    "NOM": "de la Vivinie",
    "TYPE": "PR",
    "LAT": 45.31142845639413,
    "LONG": 1.32487423508838,
    "ETAT": "ES",
    "VOLUME": "",
    "CAPACITE(eH)": "",
    "DEBIT(m3/j)": "NC",
    "DBO(kg/j)": "",
    "DATE MISE EN SERVICE": "",
    "DOCUMENTATION": "Juillac - PR de la Vivinie.pdf",
    "LIEN1": "",
    "TYPE1": "",
    "LIEN2": "",
    "TYPE2": "",
    "LIEN3": "",
    "TYPE3": ""
  },
  {
    "INDEX": 139,
    "COMMUNE": "LARCHE",
    "NOM": "La Feuillade",
    "TYPE": "STEP Lit bactérien forte charge",
    "LAT": 45.12461834012881,
    "LONG": 1.4117042786475842,
    "ETAT": "HS",
    "VOLUME": "",
    "CAPACITE(eH)": 4200,
    "DEBIT(m3/j)": 630,
    "DBO(kg/j)": 252,
    "DATE MISE EN SERVICE": 1983,
    "DOCUMENTATION": "",
    "LIEN1": "",
    "TYPE1": "",
    "LIEN2": "",
    "TYPE2": "",
    "LIEN3": "",
    "TYPE3": ""
  },
  {
    "INDEX": 140,
    "COMMUNE": "LARCHE",
    "NOM": "Rue du Moulin",
    "TYPE": "EU",
    "LAT": 45.123899254391794,
    "LONG": 1.4132552065945225,
    "ETAT": "ES",
    "VOLUME": "",
    "CAPACITE(eH)": "",
    "DEBIT(m3/j)": "",
    "DBO(kg/j)": "",
    "DATE MISE EN SERVICE": "",
    "DOCUMENTATION": "Larche - PR de la rue du Moulin.pdf",
    "LIEN1": "",
    "TYPE1": "",
    "LIEN2": "",
    "TYPE2": "",
    "LIEN3": "",
    "TYPE3": ""
  },
  {
    "INDEX": 141,
    "COMMUNE": "LARCHE",
    "NOM": "Alexis jaubert 1",
    "TYPE": "EU",
    "LAT": 45.12166844339082,
    "LONG": 1.4185433870680584,
    "ETAT": "ES",
    "VOLUME": "",
    "CAPACITE(eH)": "",
    "DEBIT(m3/j)": "",
    "DBO(kg/j)": "",
    "DATE MISE EN SERVICE": "",
    "DOCUMENTATION": "Larche - PR Alexis Jaubert N°1.pdf",
    "LIEN1": "",
    "TYPE1": "",
    "LIEN2": "",
    "TYPE2": "",
    "LIEN3": "",
    "TYPE3": ""
  },
  {
    "INDEX": 142,
    "COMMUNE": "LARCHE",
    "NOM": "Alexis jaubert 2",
    "TYPE": "EU",
    "LAT": 45.12219876590045,
    "LONG": 1.4169679753834843,
    "ETAT": "ES",
    "VOLUME": "",
    "CAPACITE(eH)": "",
    "DEBIT(m3/j)": "",
    "DBO(kg/j)": "",
    "DATE MISE EN SERVICE": "",
    "DOCUMENTATION": "Larche - PR Alexis Jaubert N°2.pdf",
    "LIEN1": "",
    "TYPE1": "",
    "LIEN2": "",
    "TYPE2": "",
    "LIEN3": "",
    "TYPE3": ""
  },
  {
    "INDEX": 143,
    "COMMUNE": "LARCHE",
    "NOM": "Barbazan",
    "TYPE": "EU",
    "LAT": 45.12299910341858,
    "LONG": 1.4153196786236122,
    "ETAT": "ES",
    "VOLUME": "",
    "CAPACITE(eH)": "",
    "DEBIT(m3/j)": "",
    "DBO(kg/j)": "",
    "DATE MISE EN SERVICE": "",
    "DOCUMENTATION": "Larche - PR de Barbazan.pdf",
    "LIEN1": "",
    "TYPE1": "",
    "LIEN2": "",
    "TYPE2": "",
    "LIEN3": "",
    "TYPE3": ""
  },
  {
    "INDEX": 144,
    "COMMUNE": "LARCHE",
    "NOM": "Croix de Bedenas",
    "TYPE": "EU",
    "LAT": 45.120983635774884,
    "LONG": 1.4245214596420632,
    "ETAT": "ES",
    "VOLUME": "",
    "CAPACITE(eH)": "",
    "DEBIT(m3/j)": "",
    "DBO(kg/j)": "",
    "DATE MISE EN SERVICE": "",
    "DOCUMENTATION": "Larche - PR La Croix de Bedenas.pdf",
    "LIEN1": "",
    "TYPE1": "",
    "LIEN2": "",
    "TYPE2": "",
    "LIEN3": "",
    "TYPE3": ""
  },
  {
    "INDEX": 145,
    "COMMUNE": "LISSAC-SUR-COUZE",
    "NOM": "Port Perrier",
    "TYPE": "EU",
    "LAT": 45.0957087371741,
    "LONG": 1.4419718770767715,
    "ETAT": "ES",
    "VOLUME": "",
    "CAPACITE(eH)": "",
    "DEBIT(m3/j)": "",
    "DBO(kg/j)": "",
    "DATE MISE EN SERVICE": "",
    "DOCUMENTATION": "Lissac - PR du Port Perrier.pdf",
    "LIEN1": "",
    "TYPE1": "",
    "LIEN2": "",
    "TYPE2": "",
    "LIEN3": "",
    "TYPE3": ""
  },
  {
    "INDEX": 146,
    "COMMUNE": "LISSAC-SUR-COUZE",
    "NOM": "Moulin du Soulier",
    "TYPE": "EU",
    "LAT": 45.095855007484424,
    "LONG": 1.4638971283234625,
    "ETAT": "ES",
    "VOLUME": "",
    "CAPACITE(eH)": "",
    "DEBIT(m3/j)": "",
    "DBO(kg/j)": "",
    "DATE MISE EN SERVICE": "",
    "DOCUMENTATION": "Lissac - PR Moulin du Soulier.pdf",
    "LIEN1": "",
    "TYPE1": "",
    "LIEN2": "",
    "TYPE2": "",
    "LIEN3": "",
    "TYPE3": ""
  },
  {
    "INDEX": 147,
    "COMMUNE": "LISSAC-SUR-COUZE",
    "NOM": "Ecole de Voile",
    "TYPE": "EU",
    "LAT": 45.10005568555374,
    "LONG": 1.4552520934887598,
    "ETAT": "ES",
    "VOLUME": "",
    "CAPACITE(eH)": "",
    "DEBIT(m3/j)": "",
    "DBO(kg/j)": "",
    "DATE MISE EN SERVICE": "",
    "DOCUMENTATION": "Lissac - PR Ecole de Voile.pdf",
    "LIEN1": "",
    "TYPE1": "",
    "LIEN2": "",
    "TYPE2": "",
    "LIEN3": "",
    "TYPE3": ""
  },
  {
    "INDEX": 148,
    "COMMUNE": "LISSAC-SUR-COUZE",
    "NOM": "Pas Noir",
    "TYPE": "EU",
    "LAT": 45.1150654622236,
    "LONG": 1.4622320084415965,
    "ETAT": "ES",
    "VOLUME": "",
    "CAPACITE(eH)": "",
    "DEBIT(m3/j)": "",
    "DBO(kg/j)": "",
    "DATE MISE EN SERVICE": "",
    "DOCUMENTATION": "Lissac - PR du Pas Noir n°1.pdf",
    "LIEN1": "",
    "TYPE1": "",
    "LIEN2": "",
    "TYPE2": "",
    "LIEN3": "",
    "TYPE3": ""
  },
  {
    "INDEX": 149,
    "COMMUNE": "LISSAC-SUR-COUZE",
    "NOM": "Réservoir de Gramont Haut",
    "TYPE": "Réservoir + reprise",
    "LAT": 45.114837221747464,
    "LONG": 1.4582202427794975,
    "ETAT": "ES",
    "VOLUME": 300,
    "CAPACITE(eH)": "",
    "DEBIT(m3/j)": "",
    "DBO(kg/j)": "",
    "DATE MISE EN SERVICE": "",
    "DOCUMENTATION": "",
    "LIEN1": "",
    "TYPE1": "",
    "LIEN2": "",
    "TYPE2": "",
    "LIEN3": "",
    "TYPE3": ""
  },
  {
    "INDEX": 150,
    "COMMUNE": "LISSAC-SUR-COUZE",
    "NOM": "Réservoir de Perbousie",
    "TYPE": "Réservoir",
    "LAT": 45.12913766031195,
    "LONG": 1.4719585622870306,
    "ETAT": "ES",
    "VOLUME": 1000,
    "CAPACITE(eH)": "",
    "DEBIT(m3/j)": "",
    "DBO(kg/j)": "",
    "DATE MISE EN SERVICE": "",
    "DOCUMENTATION": "",
    "LIEN1": "",
    "TYPE1": "",
    "LIEN2": "",
    "TYPE2": "",
    "LIEN3": "",
    "TYPE3": ""
  },
  {
    "INDEX": 151,
    "COMMUNE": "LOUIGNAC",
    "NOM": "Réservoir de Louignac",
    "TYPE": "Réservoir",
    "LAT": 45.2207968006221,
    "LONG": 1.2781838144141127,
    "ETAT": "ES",
    "VOLUME": 150,
    "CAPACITE(eH)": "",
    "DEBIT(m3/j)": "",
    "DBO(kg/j)": "",
    "DATE MISE EN SERVICE": "",
    "DOCUMENTATION": "",
    "LIEN1": "",
    "TYPE1": "",
    "LIEN2": "",
    "TYPE2": "",
    "LIEN3": "",
    "TYPE3": ""
  },
  {
    "INDEX": 152,
    "COMMUNE": "MALEMORT",
    "NOM": "Venarsal bourg",
    "TYPE": "STEP Filtres plantés de roseaux",
    "LAT": 45.19152968583601,
    "LONG": 1.6172694385468305,
    "ETAT": "ES",
    "VOLUME": "",
    "CAPACITE(eH)": 400,
    "DEBIT(m3/j)": 60,
    "DBO(kg/j)": 24,
    "DATE MISE EN SERVICE": 2005,
    "DOCUMENTATION": "Malemort - Fiche STEP Venarsal.pdf",
    "LIEN1": "",
    "TYPE1": "",
    "LIEN2": "",
    "TYPE2": "",
    "LIEN3": "",
    "TYPE3": ""
  },
  {
    "INDEX": 153,
    "COMMUNE": "MALEMORT",
    "NOM": "de la Riante Borie",
    "TYPE": "PR",
    "LAT": 45.16472401543986,
    "LONG": 1.5538921185784003,
    "ETAT": "ES",
    "VOLUME": "",
    "CAPACITE(eH)": "",
    "DEBIT(m3/j)": "NC",
    "DBO(kg/j)": "",
    "DATE MISE EN SERVICE": "",
    "DOCUMENTATION": "Malemort - PR de la Riante Borie.pdf",
    "LIEN1": "",
    "TYPE1": "",
    "LIEN2": "",
    "TYPE2": "",
    "LIEN3": "",
    "TYPE3": ""
  },
  {
    "INDEX": 154,
    "COMMUNE": "MALEMORT",
    "NOM": "de Bon Abri",
    "TYPE": "PR",
    "LAT": 45.165967714374005,
    "LONG": 1.5649864947962817,
    "ETAT": "ES",
    "VOLUME": "",
    "CAPACITE(eH)": "",
    "DEBIT(m3/j)": "NC",
    "DBO(kg/j)": "",
    "DATE MISE EN SERVICE": "",
    "DOCUMENTATION": "Malemort - PR du Bon Abri.pdf",
    "LIEN1": "",
    "TYPE1": "",
    "LIEN2": "",
    "TYPE2": "",
    "LIEN3": "",
    "TYPE3": ""
  },
  {
    "INDEX": 155,
    "COMMUNE": "MALEMORT",
    "NOM": "de la rue de Corrèze",
    "TYPE": "PR",
    "LAT": 45.16777685134547,
    "LONG": 1.5552771057069414,
    "ETAT": "ES",
    "VOLUME": "",
    "CAPACITE(eH)": "",
    "DEBIT(m3/j)": "NC",
    "DBO(kg/j)": "",
    "DATE MISE EN SERVICE": "",
    "DOCUMENTATION": "Malemort - PR de la Rue de Corrèze.pdf",
    "LIEN1": "",
    "TYPE1": "",
    "LIEN2": "",
    "TYPE2": "",
    "LIEN3": "",
    "TYPE3": ""
  },
  {
    "INDEX": 156,
    "COMMUNE": "MALEMORT",
    "NOM": "des Gorses",
    "TYPE": "PR",
    "LAT": 45.17333093030555,
    "LONG": 1.5761156612877623,
    "ETAT": "ES",
    "VOLUME": "",
    "CAPACITE(eH)": "",
    "DEBIT(m3/j)": "NC",
    "DBO(kg/j)": "",
    "DATE MISE EN SERVICE": "",
    "DOCUMENTATION": "Malemort - PR des Gorces.pdf",
    "LIEN1": "",
    "TYPE1": "",
    "LIEN2": "",
    "TYPE2": "",
    "LIEN3": "",
    "TYPE3": ""
  },
  {
    "INDEX": 157,
    "COMMUNE": "MALEMORT",
    "NOM": "Pasteur",
    "TYPE": "PR",
    "LAT": 45.1666469,
    "LONG": 1.5609269,
    "ETAT": "ES",
    "VOLUME": "",
    "CAPACITE(eH)": "",
    "DEBIT(m3/j)": "NC",
    "DBO(kg/j)": "",
    "DATE MISE EN SERVICE": "",
    "DOCUMENTATION": "Malemort - PR de l'Avenue Pasteur.pdf",
    "LIEN1": "",
    "TYPE1": "",
    "LIEN2": "",
    "TYPE2": "",
    "LIEN3": "",
    "TYPE3": ""
  },
  {
    "INDEX": 158,
    "COMMUNE": "MALEMORT",
    "NOM": "les Vérrines",
    "TYPE": "PR",
    "LAT": 45.17055724690605,
    "LONG": 1.5641680344656836,
    "ETAT": "ES",
    "VOLUME": "",
    "CAPACITE(eH)": "",
    "DEBIT(m3/j)": "NC",
    "DBO(kg/j)": "",
    "DATE MISE EN SERVICE": "",
    "DOCUMENTATION": "Malemort - PR des Verrines.pdf",
    "LIEN1": "",
    "TYPE1": "",
    "LIEN2": "",
    "TYPE2": "",
    "LIEN3": "",
    "TYPE3": ""
  },
  {
    "INDEX": 159,
    "COMMUNE": "MALEMORT",
    "NOM": "de la Gautherie",
    "TYPE": "PR",
    "LAT": 45.1711083697269,
    "LONG": 1.563606413459101,
    "ETAT": "ES",
    "VOLUME": "",
    "CAPACITE(eH)": "",
    "DEBIT(m3/j)": "NC",
    "DBO(kg/j)": "",
    "DATE MISE EN SERVICE": "",
    "DOCUMENTATION": "Malemort - PR de la Gautherie.pdf",
    "LIEN1": "",
    "TYPE1": "",
    "LIEN2": "",
    "TYPE2": "",
    "LIEN3": "",
    "TYPE3": ""
  },
  {
    "INDEX": 160,
    "COMMUNE": "MALEMORT",
    "NOM": "de la ZA du Moulin",
    "TYPE": "PR",
    "LAT": 45.17611282938991,
    "LONG": 1.5916675333507255,
    "ETAT": "ES",
    "VOLUME": "",
    "CAPACITE(eH)": "",
    "DEBIT(m3/j)": "NC",
    "DBO(kg/j)": "",
    "DATE MISE EN SERVICE": "",
    "DOCUMENTATION": "Malemort - PR de la ZA du Moulin.pdf",
    "LIEN1": "",
    "TYPE1": "",
    "LIEN2": "",
    "TYPE2": "",
    "LIEN3": "",
    "TYPE3": ""
  },
  {
    "INDEX": 161,
    "COMMUNE": "MALEMORT",
    "NOM": "des Besses (venarsal)",
    "TYPE": "PR",
    "LAT": 45.19751914571284,
    "LONG": 1.626775513427477,
    "ETAT": "ES",
    "VOLUME": "",
    "CAPACITE(eH)": "",
    "DEBIT(m3/j)": "NC",
    "DBO(kg/j)": "",
    "DATE MISE EN SERVICE": "",
    "DOCUMENTATION": "",
    "LIEN1": "",
    "TYPE1": "",
    "LIEN2": "",
    "TYPE2": "",
    "LIEN3": "",
    "TYPE3": ""
  },
  {
    "INDEX": 162,
    "COMMUNE": "MALEMORT",
    "NOM": "des Traverses (venarsal)",
    "TYPE": "PR",
    "LAT": 45.19138541680577,
    "LONG": 1.6197216250732487,
    "ETAT": "ES",
    "VOLUME": "",
    "CAPACITE(eH)": "",
    "DEBIT(m3/j)": "NC",
    "DBO(kg/j)": "",
    "DATE MISE EN SERVICE": "",
    "DOCUMENTATION": "Malemort-Venarsal- PR les traverses.pdf",
    "LIEN1": "",
    "TYPE1": "",
    "LIEN2": "",
    "TYPE2": "",
    "LIEN3": "",
    "TYPE3": ""
  },
  {
    "INDEX": 163,
    "COMMUNE": "MALEMORT",
    "NOM": "Al Rigal (venarsal)",
    "TYPE": "PR",
    "LAT": 45.191889965952704,
    "LONG": 1.6284800419084238,
    "ETAT": "ES",
    "VOLUME": "",
    "CAPACITE(eH)": "",
    "DEBIT(m3/j)": "NC",
    "DBO(kg/j)": "",
    "DATE MISE EN SERVICE": "",
    "DOCUMENTATION": "Malemort -Venarsal - PR d'Al Rigal.pdf",
    "LIEN1": "",
    "TYPE1": "",
    "LIEN2": "",
    "TYPE2": "",
    "LIEN3": "",
    "TYPE3": ""
  },
  {
    "INDEX": 164,
    "COMMUNE": "MALEMORT",
    "NOM": "Pierre et Marie Curie",
    "TYPE": "PR",
    "LAT": 45.16777685134547,
    "LONG": 1.5552771057069414,
    "ETAT": "ES",
    "VOLUME": "",
    "CAPACITE(eH)": "",
    "DEBIT(m3/j)": "",
    "DBO(kg/j)": "",
    "DATE MISE EN SERVICE": "",
    "DOCUMENTATION": "Malemort - PR Pierre et Marie Curie.pdf",
    "LIEN1": "",
    "TYPE1": "",
    "LIEN2": "",
    "TYPE2": "",
    "LIEN3": "",
    "TYPE3": ""
  },
  {
    "INDEX": 165,
    "COMMUNE": "MALEMORT",
    "NOM": "Station de reprise de Cluzan",
    "TYPE": "Réservoir + reprise",
    "LAT": 45.1859804591346,
    "LONG": 1.5938688758265565,
    "ETAT": "ES",
    "VOLUME": 100,
    "CAPACITE(eH)": "",
    "DEBIT(m3/j)": "",
    "DBO(kg/j)": "",
    "DATE MISE EN SERVICE": "",
    "DOCUMENTATION": "",
    "LIEN1": "",
    "TYPE1": "",
    "LIEN2": "",
    "TYPE2": "",
    "LIEN3": "",
    "TYPE3": ""
  },
  {
    "INDEX": 166,
    "COMMUNE": "MALEMORT",
    "NOM": "Réservoir de Puy Lacamp N°1",
    "TYPE": "Réservoir",
    "LAT": 45.17343444656663,
    "LONG": 1.5533509630538276,
    "ETAT": "ES",
    "VOLUME": 300,
    "CAPACITE(eH)": "",
    "DEBIT(m3/j)": "",
    "DBO(kg/j)": "",
    "DATE MISE EN SERVICE": "",
    "DOCUMENTATION": "",
    "LIEN1": "",
    "TYPE1": "",
    "LIEN2": "",
    "TYPE2": "",
    "LIEN3": "",
    "TYPE3": ""
  },
  {
    "INDEX": 167,
    "COMMUNE": "MALEMORT",
    "NOM": "Réservoir de Puy Lacamp N°2",
    "TYPE": "Réservoir",
    "LAT": 45.173175016478645,
    "LONG": 1.553361240396841,
    "ETAT": "ES",
    "VOLUME": 350,
    "CAPACITE(eH)": "",
    "DEBIT(m3/j)": "",
    "DBO(kg/j)": "",
    "DATE MISE EN SERVICE": "",
    "DOCUMENTATION": "",
    "LIEN1": "",
    "TYPE1": "",
    "LIEN2": "",
    "TYPE2": "",
    "LIEN3": "",
    "TYPE3": ""
  },
  {
    "INDEX": 168,
    "COMMUNE": "MALEMORT",
    "NOM": "Réservoir des Traverses",
    "TYPE": "Réservoir",
    "LAT": 45.18694190472877,
    "LONG": 1.6210481056874064,
    "ETAT": "ES",
    "VOLUME": 200,
    "CAPACITE(eH)": "",
    "DEBIT(m3/j)": "",
    "DBO(kg/j)": "",
    "DATE MISE EN SERVICE": "",
    "DOCUMENTATION": "",
    "LIEN1": "",
    "TYPE1": "",
    "LIEN2": "",
    "TYPE2": "",
    "LIEN3": "",
    "TYPE3": ""
  },
  {
    "INDEX": 169,
    "COMMUNE": "MALEMORT",
    "NOM": "Station de reprise de Malemort",
    "TYPE": "Reprise seule",
    "LAT": 45.16639846275343,
    "LONG": 1.559519748808735,
    "ETAT": "ES",
    "VOLUME": "",
    "CAPACITE(eH)": "",
    "DEBIT(m3/j)": "",
    "DBO(kg/j)": "",
    "DATE MISE EN SERVICE": "",
    "DOCUMENTATION": "",
    "LIEN1": "",
    "TYPE1": "",
    "LIEN2": "",
    "TYPE2": "",
    "LIEN3": "",
    "TYPE3": ""
  },
  {
    "INDEX": 170,
    "COMMUNE": "MANSAC",
    "NOM": "La Rivière de Mansac",
    "TYPE": "STEP Station biologique - Boue activée",
    "LAT": 45.14451355134198,
    "LONG": 1.3557993849536698,
    "ETAT": "ES",
    "VOLUME": "",
    "CAPACITE(eH)": 1000,
    "DEBIT(m3/j)": 150,
    "DBO(kg/j)": 60,
    "DATE MISE EN SERVICE": 1980,
    "DOCUMENTATION": "Mansac - Fiche STEP de la Rivière de Mansac.pdf",
    "LIEN1": "",
    "TYPE1": "",
    "LIEN2": "",
    "TYPE2": "",
    "LIEN3": "",
    "TYPE3": ""
  },
  {
    "INDEX": 171,
    "COMMUNE": "MANSAC",
    "NOM": "le bourg la barde",
    "TYPE": "STEP Filtres plantés de roseaux",
    "LAT": 45.17421985670017,
    "LONG": 1.3739323296909562,
    "ETAT": "ES",
    "VOLUME": "",
    "CAPACITE(eH)": 140,
    "DEBIT(m3/j)": 21,
    "DBO(kg/j)": 8.4,
    "DATE MISE EN SERVICE": 2011,
    "DOCUMENTATION": "Mansac - Fiche STEP des Bardes.pdf",
    "LIEN1": "",
    "TYPE1": "",
    "LIEN2": "",
    "TYPE2": "",
    "LIEN3": "",
    "TYPE3": ""
  },
  {
    "INDEX": 172,
    "COMMUNE": "MANSAC",
    "NOM": "du Gour",
    "TYPE": "PR",
    "LAT": 45.13750368618644,
    "LONG": 1.3730492089846646,
    "ETAT": "ES",
    "VOLUME": "",
    "CAPACITE(eH)": "",
    "DEBIT(m3/j)": "NC",
    "DBO(kg/j)": "",
    "DATE MISE EN SERVICE": "",
    "DOCUMENTATION": "Mansac - PR du Gour.pdf",
    "LIEN1": "",
    "TYPE1": "",
    "LIEN2": "",
    "TYPE2": "",
    "LIEN3": "",
    "TYPE3": ""
  },
  {
    "INDEX": 173,
    "COMMUNE": "MANSAC",
    "NOM": "de Basse Rivière",
    "TYPE": "BASSIN ORAGE",
    "LAT": 45.14430037,
    "LONG": 1.3612638,
    "ETAT": "ES",
    "VOLUME": "",
    "CAPACITE(eH)": "",
    "DEBIT(m3/j)": "BO",
    "DBO(kg/j)": "",
    "DATE MISE EN SERVICE": "",
    "DOCUMENTATION": "Mansac -BO de la Riviere.pdf",
    "LIEN1": "",
    "TYPE1": "",
    "LIEN2": "",
    "TYPE2": "",
    "LIEN3": "",
    "TYPE3": ""
  },
  {
    "INDEX": 174,
    "COMMUNE": "MANSAC",
    "NOM": "de la rue Principale",
    "TYPE": "PR",
    "LAT": 45.13749648880331,
    "LONG": 1.366394562585323,
    "ETAT": "ES",
    "VOLUME": "",
    "CAPACITE(eH)": "",
    "DEBIT(m3/j)": "NC",
    "DBO(kg/j)": "",
    "DATE MISE EN SERVICE": "",
    "DOCUMENTATION": "Mansac - PR de la Rue Principale.pdf",
    "LIEN1": "",
    "TYPE1": "",
    "LIEN2": "",
    "TYPE2": "",
    "LIEN3": "",
    "TYPE3": ""
  },
  {
    "INDEX": 175,
    "COMMUNE": "MANSAC",
    "NOM": "du Parc Industriel",
    "TYPE": "PR",
    "LAT": 45.13944039862902,
    "LONG": 1.361387764123886,
    "ETAT": "ES",
    "VOLUME": "",
    "CAPACITE(eH)": "",
    "DEBIT(m3/j)": "NC",
    "DBO(kg/j)": "",
    "DATE MISE EN SERVICE": "",
    "DOCUMENTATION": "Mansac - PR du Parc Industriel.pdf",
    "LIEN1": "",
    "TYPE1": "",
    "LIEN2": "",
    "TYPE2": "",
    "LIEN3": "",
    "TYPE3": ""
  },
  {
    "INDEX": 176,
    "COMMUNE": "MANSAC",
    "NOM": "Mansac Bourg",
    "TYPE": "PR",
    "LAT": 45.16833356107814,
    "LONG": 1.3825017160137099,
    "ETAT": "ES",
    "VOLUME": "",
    "CAPACITE(eH)": "",
    "DEBIT(m3/j)": "NC",
    "DBO(kg/j)": "",
    "DATE MISE EN SERVICE": "",
    "DOCUMENTATION": "Mansac - PR du Bourg.pdf",
    "LIEN1": "",
    "TYPE1": "",
    "LIEN2": "",
    "TYPE2": "",
    "LIEN3": "",
    "TYPE3": ""
  },
  {
    "INDEX": 177,
    "COMMUNE": "MANSAC",
    "NOM": "du Cimetière",
    "TYPE": "PR",
    "LAT": 45.16896902510248,
    "LONG": 1.384675177549435,
    "ETAT": "ES",
    "VOLUME": "",
    "CAPACITE(eH)": "",
    "DEBIT(m3/j)": "NC",
    "DBO(kg/j)": "",
    "DATE MISE EN SERVICE": "",
    "DOCUMENTATION": "Mansac - PR du Cimetiere.pdf",
    "LIEN1": "",
    "TYPE1": "",
    "LIEN2": "",
    "TYPE2": "",
    "LIEN3": "",
    "TYPE3": ""
  },
  {
    "INDEX": 178,
    "COMMUNE": "MANSAC",
    "NOM": "Réservoir des Suquats",
    "TYPE": "Réservoir",
    "LAT": 45.14910037087216,
    "LONG": 1.378809251640078,
    "ETAT": "ES",
    "VOLUME": 500,
    "CAPACITE(eH)": "",
    "DEBIT(m3/j)": "",
    "DBO(kg/j)": "",
    "DATE MISE EN SERVICE": "",
    "DOCUMENTATION": "",
    "LIEN1": "",
    "TYPE1": "",
    "LIEN2": "",
    "TYPE2": "",
    "LIEN3": "",
    "TYPE3": ""
  },
  {
    "INDEX": 179,
    "COMMUNE": "MANSAC",
    "NOM": "Surpresseur du Pic",
    "TYPE": "Reprise seule",
    "LAT": 45.17738228348485,
    "LONG": 1.410217156790732,
    "ETAT": "ES",
    "VOLUME": "",
    "CAPACITE(eH)": "",
    "DEBIT(m3/j)": "",
    "DBO(kg/j)": "",
    "DATE MISE EN SERVICE": "",
    "DOCUMENTATION": "",
    "LIEN1": "",
    "TYPE1": "",
    "LIEN2": "",
    "TYPE2": "",
    "LIEN3": "",
    "TYPE3": ""
  },
  {
    "INDEX": 180,
    "COMMUNE": "NESPOULS",
    "NOM": "Nespouls",
    "TYPE": "STEP traitement biologique sur filtre enterré",
    "LAT": 45.04937316246374,
    "LONG": 1.5017189019722166,
    "ETAT": "ES",
    "VOLUME": "",
    "CAPACITE(eH)": 190,
    "DEBIT(m3/j)": 28.5,
    "DBO(kg/j)": 11.4,
    "DATE MISE EN SERVICE": 2006,
    "DOCUMENTATION": "Nespouls - Fiche STEP.pdf",
    "LIEN1": "",
    "TYPE1": "",
    "LIEN2": "",
    "TYPE2": "",
    "LIEN3": "",
    "TYPE3": ""
  },
  {
    "INDEX": 181,
    "COMMUNE": "NESPOULS",
    "NOM": "Nespouls",
    "TYPE": "PR",
    "LAT": 45.04861072662492,
    "LONG": 1.5030539835977328,
    "ETAT": "ES",
    "VOLUME": "",
    "CAPACITE(eH)": "",
    "DEBIT(m3/j)": "NC",
    "DBO(kg/j)": "",
    "DATE MISE EN SERVICE": "",
    "DOCUMENTATION": "Nespouls- PR du Bourg.pdf",
    "LIEN1": "",
    "TYPE1": "",
    "LIEN2": "",
    "TYPE2": "",
    "LIEN3": "",
    "TYPE3": ""
  },
  {
    "INDEX": 182,
    "COMMUNE": "NESPOULS",
    "NOM": "Réservoir de Nespouls",
    "TYPE": "Réservoir",
    "LAT": 45.05253548524466,
    "LONG": 1.502824617496881,
    "ETAT": "ES",
    "VOLUME": 200,
    "CAPACITE(eH)": "",
    "DEBIT(m3/j)": "",
    "DBO(kg/j)": "",
    "DATE MISE EN SERVICE": "",
    "DOCUMENTATION": "",
    "LIEN1": "",
    "TYPE1": "",
    "LIEN2": "",
    "TYPE2": "",
    "LIEN3": "",
    "TYPE3": ""
  },
  {
    "INDEX": 183,
    "COMMUNE": "NESPOULS",
    "NOM": "Poste de chloration de Baudran",
    "TYPE": "Poste de chloration",
    "LAT": 45.03638424355979,
    "LONG": 1.4792113729702578,
    "ETAT": "ES",
    "VOLUME": "",
    "CAPACITE(eH)": "",
    "DEBIT(m3/j)": "",
    "DBO(kg/j)": "",
    "DATE MISE EN SERVICE": "",
    "DOCUMENTATION": "",
    "LIEN1": "",
    "TYPE1": "",
    "LIEN2": "",
    "TYPE2": "",
    "LIEN3": "",
    "TYPE3": ""
  },
  {
    "INDEX": 184,
    "COMMUNE": "NOAILLES",
    "NOM": "Noailles",
    "TYPE": "STEP Filtres plantés de roseaux",
    "LAT": 45.1070800835646,
    "LONG": 1.5207036114764525,
    "ETAT": "ES",
    "VOLUME": "",
    "CAPACITE(eH)": 170,
    "DEBIT(m3/j)": 18,
    "DBO(kg/j)": 10.2,
    "DATE MISE EN SERVICE": 2005,
    "DOCUMENTATION": "Noailles- Fiche STEP du Bourg.pdf",
    "LIEN1": "",
    "TYPE1": "",
    "LIEN2": "",
    "TYPE2": "",
    "LIEN3": "",
    "TYPE3": ""
  },
  {
    "INDEX": 185,
    "COMMUNE": "NOAILLES",
    "NOM": "du Bourg",
    "TYPE": "PR",
    "LAT": 45.101390417658,
    "LONG": 1.5224947866642176,
    "ETAT": "ES",
    "VOLUME": "",
    "CAPACITE(eH)": "",
    "DEBIT(m3/j)": "NC",
    "DBO(kg/j)": "",
    "DATE MISE EN SERVICE": "",
    "DOCUMENTATION": "Noailles - PR du Bourg.pdf",
    "LIEN1": "",
    "TYPE1": "",
    "LIEN2": "",
    "TYPE2": "",
    "LIEN3": "",
    "TYPE3": ""
  },
  {
    "INDEX": 186,
    "COMMUNE": "NOAILLES",
    "NOM": "A. Morel",
    "TYPE": "PR",
    "LAT": 45.10583640477454,
    "LONG": 1.5188929217327811,
    "ETAT": "ES",
    "VOLUME": "",
    "CAPACITE(eH)": "",
    "DEBIT(m3/j)": "NC",
    "DBO(kg/j)": "",
    "DATE MISE EN SERVICE": "",
    "DOCUMENTATION": "Noailles - PR de la rue André Morel.pdf",
    "LIEN1": "",
    "TYPE1": "",
    "LIEN2": "",
    "TYPE2": "",
    "LIEN3": "",
    "TYPE3": ""
  },
  {
    "INDEX": 187,
    "COMMUNE": "NOAILLES",
    "NOM": "Madelbos",
    "TYPE": "PR",
    "LAT": 45.10361334420269,
    "LONG": 1.5305616886520852,
    "ETAT": "ES",
    "VOLUME": "",
    "CAPACITE(eH)": "",
    "DEBIT(m3/j)": "NC",
    "DBO(kg/j)": "",
    "DATE MISE EN SERVICE": "",
    "DOCUMENTATION": "Noailles - PR de Madelbos.pdf",
    "LIEN1": "",
    "TYPE1": "",
    "LIEN2": "",
    "TYPE2": "",
    "LIEN3": "",
    "TYPE3": ""
  },
  {
    "INDEX": 188,
    "COMMUNE": "NOAILLES",
    "NOM": "Mazarin",
    "TYPE": "PR",
    "LAT": 45.10861272852792,
    "LONG": 1.5286117171353353,
    "ETAT": "ES",
    "VOLUME": "",
    "CAPACITE(eH)": "",
    "DEBIT(m3/j)": "NC",
    "DBO(kg/j)": "",
    "DATE MISE EN SERVICE": "",
    "DOCUMENTATION": "Noailles - PR du Mazarin.pdf",
    "LIEN1": "",
    "TYPE1": "",
    "LIEN2": "",
    "TYPE2": "",
    "LIEN3": "",
    "TYPE3": ""
  },
  {
    "INDEX": 189,
    "COMMUNE": "OBJAT",
    "NOM": "Bridal",
    "TYPE": "STEP Station biologique boue activée",
    "LAT": 45.23958602019971,
    "LONG": 1.4180253173484356,
    "ETAT": "ES",
    "VOLUME": "",
    "CAPACITE(eH)": 6000,
    "DEBIT(m3/j)": 900,
    "DBO(kg/j)": 360,
    "DATE MISE EN SERVICE": 1977,
    "DOCUMENTATION": "Objat - Fiche STEP de Bridal.pdf",
    "LIEN1": "",
    "TYPE1": "",
    "LIEN2": "",
    "TYPE2": "",
    "LIEN3": "",
    "TYPE3": ""
  },
  {
    "INDEX": 190,
    "COMMUNE": "OBJAT",
    "NOM": "de la Rouchonnie (allée des noisetiers)",
    "TYPE": "PR",
    "LAT": 45.25825226061149,
    "LONG": 1.396423523638445,
    "ETAT": "ES",
    "VOLUME": "",
    "CAPACITE(eH)": "",
    "DEBIT(m3/j)": "NC",
    "DBO(kg/j)": "",
    "DATE MISE EN SERVICE": "",
    "DOCUMENTATION": "Objat - PR de la Rouchonnie.pdf",
    "LIEN1": "",
    "TYPE1": "",
    "LIEN2": "",
    "TYPE2": "",
    "LIEN3": "",
    "TYPE3": ""
  },
  {
    "INDEX": 191,
    "COMMUNE": "OBJAT",
    "NOM": "du Bournas",
    "TYPE": "PR",
    "LAT": 45.25036197400941,
    "LONG": 1.4204699512575525,
    "ETAT": "ES",
    "VOLUME": "",
    "CAPACITE(eH)": "",
    "DEBIT(m3/j)": "NC",
    "DBO(kg/j)": "",
    "DATE MISE EN SERVICE": "",
    "DOCUMENTATION": "Objat - PR du Bournas.pdf",
    "LIEN1": "",
    "TYPE1": "",
    "LIEN2": "",
    "TYPE2": "",
    "LIEN3": "",
    "TYPE3": ""
  },
  {
    "INDEX": 192,
    "COMMUNE": "OBJAT",
    "NOM": "Place mairie",
    "TYPE": "PR",
    "LAT": 45.26370425147391,
    "LONG": 1.4106200001697713,
    "ETAT": "ES",
    "VOLUME": "",
    "CAPACITE(eH)": "",
    "DEBIT(m3/j)": "NC",
    "DBO(kg/j)": "",
    "DATE MISE EN SERVICE": "",
    "DOCUMENTATION": "Objat - PR Place de la Mairie.pdf",
    "LIEN1": "",
    "TYPE1": "",
    "LIEN2": "",
    "TYPE2": "",
    "LIEN3": "",
    "TYPE3": ""
  },
  {
    "INDEX": 193,
    "COMMUNE": "OBJAT",
    "NOM": "des Ateliers Municipaux(rue Joseph Coudert)",
    "TYPE": "PR",
    "LAT": 45.25833780136689,
    "LONG": 1.4105591120210377,
    "ETAT": "ES",
    "VOLUME": "",
    "CAPACITE(eH)": "",
    "DEBIT(m3/j)": "NC",
    "DBO(kg/j)": "",
    "DATE MISE EN SERVICE": "",
    "DOCUMENTATION": "Objat - PR des Ateliers Municipaux.pdf",
    "LIEN1": "",
    "TYPE1": "",
    "LIEN2": "",
    "TYPE2": "",
    "LIEN3": "",
    "TYPE3": ""
  },
  {
    "INDEX": 194,
    "COMMUNE": "OBJAT",
    "NOM": "Poste de M Peyramaure",
    "TYPE": "PR",
    "LAT": 45.24854691086874,
    "LONG": 1.4179850500780549,
    "ETAT": "ES",
    "VOLUME": "",
    "CAPACITE(eH)": "",
    "DEBIT(m3/j)": "PERSO",
    "DBO(kg/j)": "",
    "DATE MISE EN SERVICE": "",
    "DOCUMENTATION": "Objat - PR de Mr Peyramaure.pdf",
    "LIEN1": "",
    "TYPE1": "",
    "LIEN2": "",
    "TYPE2": "",
    "LIEN3": "",
    "TYPE3": ""
  },
  {
    "INDEX": 195,
    "COMMUNE": "OBJAT",
    "NOM": "Réservoir de la Brudie N°2",
    "TYPE": "Réservoir",
    "LAT": 45.266051692795145,
    "LONG": 1.4160757617993804,
    "ETAT": "ES",
    "VOLUME": 500,
    "CAPACITE(eH)": "",
    "DEBIT(m3/j)": "",
    "DBO(kg/j)": "",
    "DATE MISE EN SERVICE": "",
    "DOCUMENTATION": "",
    "LIEN1": 542,
    "TYPE1": "EP",
    "LIEN2": "",
    "TYPE2": "",
    "LIEN3": "",
    "TYPE3": ""
  },
  {
    "INDEX": 196,
    "COMMUNE": "OBJAT",
    "NOM": "Réservoir de la Rouchonie",
    "TYPE": "Réservoir",
    "LAT": 45.261648742185784,
    "LONG": 1.4006573192377036,
    "ETAT": "ES",
    "VOLUME": 150,
    "CAPACITE(eH)": "",
    "DEBIT(m3/j)": "",
    "DBO(kg/j)": "",
    "DATE MISE EN SERVICE": "",
    "DOCUMENTATION": "",
    "LIEN1": "",
    "TYPE1": "",
    "LIEN2": "",
    "TYPE2": "",
    "LIEN3": "",
    "TYPE3": ""
  },
  {
    "INDEX": 197,
    "COMMUNE": "OBJAT",
    "NOM": "Réservoir de Madrias",
    "TYPE": "Réservoir",
    "LAT": 45.284927899330114,
    "LONG": 1.4034075385666558,
    "ETAT": "ES",
    "VOLUME": 100,
    "CAPACITE(eH)": "",
    "DEBIT(m3/j)": "",
    "DBO(kg/j)": "",
    "DATE MISE EN SERVICE": "",
    "DOCUMENTATION": "",
    "LIEN1": 196,
    "TYPE1": "EP",
    "LIEN2": 319,
    "TYPE2": "EP",
    "LIEN3": 260,
    "TYPE3": "EP"
  },
  {
    "INDEX": 198,
    "COMMUNE": "OBJAT",
    "NOM": "Réservoir de la Brudie N°1",
    "TYPE": "Réservoir",
    "LAT": 45.265960840927725,
    "LONG": 1.4162237051604127,
    "ETAT": "HS",
    "VOLUME": 500,
    "CAPACITE(eH)": "",
    "DEBIT(m3/j)": "",
    "DBO(kg/j)": "",
    "DATE MISE EN SERVICE": "",
    "DOCUMENTATION": "",
    "LIEN1": 198,
    "TYPE1": "EP",
    "LIEN2": "",
    "TYPE2": "",
    "LIEN3": "",
    "TYPE3": ""
  },
  {
    "INDEX": 199,
    "COMMUNE": "OBJAT",
    "NOM": "Réservoir de la Faurie",
    "TYPE": "Réservoir",
    "LAT": 45.26410206684121,
    "LONG": 1.4034124527155756,
    "ETAT": "HS",
    "VOLUME": 500,
    "CAPACITE(eH)": "",
    "DEBIT(m3/j)": "",
    "DBO(kg/j)": "",
    "DATE MISE EN SERVICE": "",
    "DOCUMENTATION": "",
    "LIEN1": "",
    "TYPE1": "",
    "LIEN2": "",
    "TYPE2": "",
    "LIEN3": "",
    "TYPE3": ""
  },
  {
    "INDEX": 200,
    "COMMUNE": "PERPEZAC-LE-BLANC",
    "NOM": "Bourg",
    "TYPE": "STEP Filtres plantés de roseaux",
    "LAT": 45.21976144229011,
    "LONG": 1.329011032417849,
    "ETAT": "ES",
    "VOLUME": "",
    "CAPACITE(eH)": 300,
    "DEBIT(m3/j)": 45,
    "DBO(kg/j)": 18,
    "DATE MISE EN SERVICE": 2012,
    "DOCUMENTATION": "Perpezac-le-Blanc - Fiche STEP du Bourg.pdf",
    "LIEN1": "",
    "TYPE1": "",
    "LIEN2": "",
    "TYPE2": "",
    "LIEN3": "",
    "TYPE3": ""
  },
  {
    "INDEX": 201,
    "COMMUNE": "PERPEZAC-LE-BLANC",
    "NOM": "Réservoir de Perpezac-le-Blanc",
    "TYPE": "Réservoir",
    "LAT": 45.22681691790003,
    "LONG": 1.3303280812706422,
    "ETAT": "ES",
    "VOLUME": 200,
    "CAPACITE(eH)": "",
    "DEBIT(m3/j)": "",
    "DBO(kg/j)": "",
    "DATE MISE EN SERVICE": "",
    "DOCUMENTATION": "",
    "LIEN1": "",
    "TYPE1": "",
    "LIEN2": "",
    "TYPE2": "",
    "LIEN3": "",
    "TYPE3": ""
  },
  {
    "INDEX": 202,
    "COMMUNE": "SADROC",
    "NOM": "Fitre de sadroc",
    "TYPE": "STEP Filtres plantés de roseaux",
    "LAT": 45.27459129358244,
    "LONG": 1.550931452993056,
    "ETAT": "ES",
    "VOLUME": "",
    "CAPACITE(eH)": 250,
    "DEBIT(m3/j)": 37.5,
    "DBO(kg/j)": 15,
    "DATE MISE EN SERVICE": 2001,
    "DOCUMENTATION": "Sadroc - STEP du Bourg.pdf",
    "LIEN1": "",
    "TYPE1": "",
    "LIEN2": "",
    "TYPE2": "",
    "LIEN3": "",
    "TYPE3": ""
  },
  {
    "INDEX": 203,
    "COMMUNE": "SAINT ROBERT",
    "NOM": "Surpresseur de Saint-Robert",
    "TYPE": "Reprise seule",
    "LAT": 45.25455148161535,
    "LONG": 1.2892396479978006,
    "ETAT": "ES",
    "VOLUME": "",
    "CAPACITE(eH)": "",
    "DEBIT(m3/j)": "",
    "DBO(kg/j)": "",
    "DATE MISE EN SERVICE": "",
    "DOCUMENTATION": "",
    "LIEN1": "",
    "TYPE1": "",
    "LIEN2": "",
    "TYPE2": "",
    "LIEN3": "",
    "TYPE3": ""
  },
  {
    "INDEX": 204,
    "COMMUNE": "SAINT-AULAIRE",
    "NOM": "de la Boissellerie",
    "TYPE": "PR",
    "LAT": 45.238612888170195,
    "LONG": 1.379724398378065,
    "ETAT": "ES",
    "VOLUME": "",
    "CAPACITE(eH)": "",
    "DEBIT(m3/j)": "NC",
    "DBO(kg/j)": "",
    "DATE MISE EN SERVICE": "",
    "DOCUMENTATION": "St Aulaire - PR de la Boissellerie.pdf",
    "LIEN1": "",
    "TYPE1": "",
    "LIEN2": "",
    "TYPE2": "",
    "LIEN3": "",
    "TYPE3": ""
  },
  {
    "INDEX": 205,
    "COMMUNE": "SAINT-AULAIRE",
    "NOM": "du Stade(dit aussi 4 chemin 1)",
    "TYPE": "PR",
    "LAT": 45.246664127387774,
    "LONG": 1.409170660665443,
    "ETAT": "ES",
    "VOLUME": "",
    "CAPACITE(eH)": "",
    "DEBIT(m3/j)": "NC",
    "DBO(kg/j)": "",
    "DATE MISE EN SERVICE": "",
    "DOCUMENTATION": "St Aulaire - PR du Stade.pdf",
    "LIEN1": "",
    "TYPE1": "",
    "LIEN2": "",
    "TYPE2": "",
    "LIEN3": "",
    "TYPE3": ""
  },
  {
    "INDEX": 206,
    "COMMUNE": "SAINT-AULAIRE",
    "NOM": "Perlim plus expoite par SUEZ",
    "TYPE": "PR",
    "LAT": 45.25299239715015,
    "LONG": 1.3920329199721835,
    "ETAT": "ES",
    "VOLUME": "",
    "CAPACITE(eH)": "",
    "DEBIT(m3/j)": "NC",
    "DBO(kg/j)": "",
    "DATE MISE EN SERVICE": "",
    "DOCUMENTATION": "",
    "LIEN1": "",
    "TYPE1": "",
    "LIEN2": "",
    "TYPE2": "",
    "LIEN3": "",
    "TYPE3": ""
  },
  {
    "INDEX": 207,
    "COMMUNE": "SAINT-AULAIRE",
    "NOM": "roussel",
    "TYPE": "PR",
    "LAT": 45.251058016631724,
    "LONG": 1.394375744334961,
    "ETAT": "ES",
    "VOLUME": "",
    "CAPACITE(eH)": "",
    "DEBIT(m3/j)": "NC",
    "DBO(kg/j)": "",
    "DATE MISE EN SERVICE": "",
    "DOCUMENTATION": "St Aulaire - PR de Roussel.pdf",
    "LIEN1": "",
    "TYPE1": "",
    "LIEN2": "",
    "TYPE2": "",
    "LIEN3": "",
    "TYPE3": ""
  },
  {
    "INDEX": 208,
    "COMMUNE": "SAINT-BONNET-LA-RIVIÈRE",
    "NOM": "De la foret",
    "TYPE": "STEP Filtres plantés de roseaux",
    "LAT": 45.302107222459846,
    "LONG": 1.3702874856205112,
    "ETAT": "ES",
    "VOLUME": "",
    "CAPACITE(eH)": 130,
    "DEBIT(m3/j)": 19.5,
    "DBO(kg/j)": 7.8,
    "DATE MISE EN SERVICE": 2014,
    "DOCUMENTATION": "St Bonnet la Rivière - Fiche STEP de la Foret.pdf",
    "LIEN1": "",
    "TYPE1": "",
    "LIEN2": "",
    "TYPE2": "",
    "LIEN3": "",
    "TYPE3": ""
  },
  {
    "INDEX": 209,
    "COMMUNE": "SAINT-BONNET-LA-RIVIÈRE",
    "NOM": "Amont STEP",
    "TYPE": "EU",
    "LAT": 45.299442804974866,
    "LONG": 1.3705539272222087,
    "ETAT": "ES",
    "VOLUME": "",
    "CAPACITE(eH)": "",
    "DEBIT(m3/j)": "NC",
    "DBO(kg/j)": "",
    "DATE MISE EN SERVICE": "",
    "DOCUMENTATION": "St Bonnet la Rivière - PR du Bourg.pdf",
    "LIEN1": "",
    "TYPE1": "",
    "LIEN2": "",
    "TYPE2": "",
    "LIEN3": "",
    "TYPE3": ""
  },
  {
    "INDEX": 210,
    "COMMUNE": "SAINT-BONNET-L'ENFANTIER",
    "NOM": "",
    "TYPE": "STEP Lagune",
    "LAT": 45.3149001134775,
    "LONG": 1.5472970282926528,
    "ETAT": "ES",
    "VOLUME": "",
    "CAPACITE(eH)": 45,
    "DEBIT(m3/j)": "6.75 (9m3/j selon diag infraconcept)",
    "DBO(kg/j)": 2.7,
    "DATE MISE EN SERVICE": 1991,
    "DOCUMENTATION": "St Bonnet l'Enfantier - STEP du Bourg.pdf",
    "LIEN1": "",
    "TYPE1": "",
    "LIEN2": "",
    "TYPE2": "",
    "LIEN3": "",
    "TYPE3": ""
  },
  {
    "INDEX": 211,
    "COMMUNE": "SAINT-CERNIN-DE-LARCHE",
    "NOM": "Moulin de Fournet",
    "TYPE": "EU",
    "LAT": 45.09789439551382,
    "LONG": 1.419286588288717,
    "ETAT": "ES",
    "VOLUME": "",
    "CAPACITE(eH)": "",
    "DEBIT(m3/j)": "",
    "DBO(kg/j)": "",
    "DATE MISE EN SERVICE": "",
    "DOCUMENTATION": "St Cernin - PR du Moulin du Fournet.pdf",
    "LIEN1": "",
    "TYPE1": "",
    "LIEN2": "",
    "TYPE2": "",
    "LIEN3": "",
    "TYPE3": ""
  },
  {
    "INDEX": 212,
    "COMMUNE": "SAINT-CERNIN-DE-LARCHE",
    "NOM": "Bourg Chazat",
    "TYPE": "EU",
    "LAT": 45.10613929256769,
    "LONG": 1.4114236654891243,
    "ETAT": "ES",
    "VOLUME": "",
    "CAPACITE(eH)": "",
    "DEBIT(m3/j)": "",
    "DBO(kg/j)": "",
    "DATE MISE EN SERVICE": "",
    "DOCUMENTATION": "St Cernin - PR de Chazat.pdf",
    "LIEN1": "",
    "TYPE1": "",
    "LIEN2": "",
    "TYPE2": "",
    "LIEN3": "",
    "TYPE3": ""
  },
  {
    "INDEX": 213,
    "COMMUNE": "SAINT-CERNIN-DE-LARCHE",
    "NOM": "La Digue",
    "TYPE": "EU",
    "LAT": 45.093786759610296,
    "LONG": 1.432247910661882,
    "ETAT": "ES",
    "VOLUME": "",
    "CAPACITE(eH)": "",
    "DEBIT(m3/j)": "",
    "DBO(kg/j)": "",
    "DATE MISE EN SERVICE": "",
    "DOCUMENTATION": "Lissac - PR de la Digue.pdf",
    "LIEN1": "",
    "TYPE1": "",
    "LIEN2": "",
    "TYPE2": "",
    "LIEN3": "",
    "TYPE3": ""
  },
  {
    "INDEX": 214,
    "COMMUNE": "SAINT-CYR-LA-ROCHE",
    "NOM": "Sud (bourg)",
    "TYPE": "STEP Filtres à sable",
    "LAT": 45.269655363357394,
    "LONG": 1.3933146991199354,
    "ETAT": "ES",
    "VOLUME": "",
    "CAPACITE(eH)": 110,
    "DEBIT(m3/j)": 16.5,
    "DBO(kg/j)": 6.6,
    "DATE MISE EN SERVICE": 2002,
    "DOCUMENTATION": "St Cyr la Roche - Fiche STEP du Secteur Sud.pdf",
    "LIEN1": "",
    "TYPE1": "",
    "LIEN2": "",
    "TYPE2": "",
    "LIEN3": "",
    "TYPE3": ""
  },
  {
    "INDEX": 215,
    "COMMUNE": "SAINT-CYR-LA-ROCHE",
    "NOM": "nord",
    "TYPE": "STEP Filtres à sable",
    "LAT": 45.27418314766359,
    "LONG": 1.3929256709751276,
    "ETAT": "ES",
    "VOLUME": "",
    "CAPACITE(eH)": 100,
    "DEBIT(m3/j)": 15,
    "DBO(kg/j)": 6,
    "DATE MISE EN SERVICE": 2002,
    "DOCUMENTATION": "St Cyr la Roche - Fiche STEP du Secteur Nord.pdf",
    "LIEN1": "",
    "TYPE1": "",
    "LIEN2": "",
    "TYPE2": "",
    "LIEN3": "",
    "TYPE3": ""
  },
  {
    "INDEX": 216,
    "COMMUNE": "SAINTE-FÉRÉOLE",
    "NOM": "Martignac",
    "TYPE": "STEP Lit bactérien",
    "LAT": 45.22464996696117,
    "LONG": 1.591564609423168,
    "ETAT": "ES",
    "VOLUME": "",
    "CAPACITE(eH)": 700,
    "DEBIT(m3/j)": 105,
    "DBO(kg/j)": 421,
    "DATE MISE EN SERVICE": 1998,
    "DOCUMENTATION": "Ste Féréole - Fiche STEP Martignac.pdf",
    "LIEN1": "",
    "TYPE1": "",
    "LIEN2": "",
    "TYPE2": "",
    "LIEN3": "",
    "TYPE3": ""
  },
  {
    "INDEX": 217,
    "COMMUNE": "SAINTE-FÉRÉOLE",
    "NOM": "Sauvagnac",
    "TYPE": "STEP Filtres plantés de roseaux",
    "LAT": 45.196726032204964,
    "LONG": 1.589307114040059,
    "ETAT": "ES",
    "VOLUME": "",
    "CAPACITE(eH)": 150,
    "DEBIT(m3/j)": 22.5,
    "DBO(kg/j)": 9,
    "DATE MISE EN SERVICE": 2011,
    "DOCUMENTATION": "Ste Féréole  - Fiche STEP Sauvagnac.pdf",
    "LIEN1": "",
    "TYPE1": "",
    "LIEN2": "",
    "TYPE2": "",
    "LIEN3": "",
    "TYPE3": ""
  },
  {
    "INDEX": 218,
    "COMMUNE": "SAINTE-FÉRÉOLE",
    "NOM": "Laubeyrie",
    "TYPE": "STEP Filtres à sable",
    "LAT": 45.22545492715204,
    "LONG": 1.5579877383903284,
    "ETAT": "ES",
    "VOLUME": "",
    "CAPACITE(eH)": 110,
    "DEBIT(m3/j)": 17.25,
    "DBO(kg/j)": 6.6,
    "DATE MISE EN SERVICE": 2005,
    "DOCUMENTATION": "Ste Féréole - Fiche STEP de Laubeyrie.pdf",
    "LIEN1": "",
    "TYPE1": "",
    "LIEN2": "",
    "TYPE2": "",
    "LIEN3": "",
    "TYPE3": ""
  },